city_name,citycode,nom_insee,lat_insee,lon_insee,code_dept,code_region,population_insee,surface_km2,densite_pop_km2,revenu_median_uc,taux_sans_voiture,voitures_par_menage,part_65plus,distance_dom_trav_med_km,nb_gares,nb_trajets_total,nb_trajets_moy_arret,nb_trajets_max_arret,nb_lignes_total,premier_depart_matin,dernier_depart_ville,amplitude_moy_h,amplitude_max_h,amplitude_min_h,service_weekend,service_7j_sur_7,dist_gare_min_m,has_gare,accessibilite_ord,dernier_depart_apres_minuit
Ambérieu-en-Bugey,01004,Ambérieu-en-Bugey,45.9575,5.3706,01,84,15934.0,24.548000000000002,649.0956493400683,21660.0,0.14665574560674052,1.2008047939887068,0.18061449754646136,8.272244716413862,2,3921,1307.0,2059,49,04:30:00,24:29:00,18.69,18.92,18.33,True,True,2214.0209689079866,True,3,0
Ambérieux-en-Dombes,01005,Ambérieux-en-Dombes,45.9992,4.9119,01,84,1906.0,16.0397,118.83015268365368,24610.0,0.03610824641419681,1.5312835249830123,0.16984965533372354,14.464642950262972,0,0,0.0,0,0,,,,,,False,False,7431.420617442158,False,0,0
Ambronay,01007,Ambronay,46.0099,5.3627,01,84,2841.0,33.7053,84.2894144244377,24860.0,0.05162791844530491,1.484136576513348,0.169292742866163,10.648174076434229,4,597,149.2,240,6,06:55:00,21:23:00,10.08,14.3,0.13,True,True,1713.2785034757278,True,2,0
Anglefort,01010,Anglefort,45.9086,5.7948,01,84,1174.0,29.5554,39.722013574507535,24700.0,0.03520764104380407,1.486097470580126,0.16395758392662244,7.464333811854525,0,0,0.0,0,0,,,,,,False,False,6679.709964604203,False,0,0
Arbent,01014,Arbent,46.2838,5.6879,01,84,3555.0,23.668699999999998,150.19836323921467,22410.0,0.06460747262869353,1.447468914669848,0.22503743617793712,3.8476503919391365,0,0,0.0,0,0,,,,,,False,False,3778.752356055668,False,0,0
Ars-sur-Formans,01021,Ars-sur-Formans,45.9904,4.8195,01,84,1528.0,5.5198,276.821623971883,26430.0,0.02929195623031006,1.5549239891752342,0.18532400390967022,7.902484588128979,0,0,0.0,0,0,,,,,,False,False,7627.02039532909,False,0,0
Artemare,01022,Artemare,45.8701,5.692,01,84,1139.0,3.3229,342.7728791116194,22000.0,0.11492281303602059,1.2641509433962264,0.2953549517966696,6.84961185219045,0,0,0.0,0,0,,,,,,False,False,3828.228841188108,False,0,0
Attignat,01024,Attignat,46.2858,5.1823,01,84,3409.0,18.9431,179.95998543005103,24460.0,0.04192134797001665,1.5216293622227055,0.1922302351052918,10.491046255853572,0,0,0.0,0,0,,,,,,False,False,5912.29337408205,False,0,0
Bâgé-Dommartin,01025,Bâgé-Dommartin,46.3277,4.9704,01,84,4050.0,57.011,71.03892231323779,24880.0,0.032709256197944,1.6023048350990523,0.1686145506774501,12.44749460429644,0,0,0.0,0,0,,,,,,False,False,8566.472462129183,False,0,0
Balan,01027,Balan,45.8268,5.1076,01,84,3077.0,17.9948,170.99384266565895,25770.0,0.021060258310764704,1.6286885074500783,0.10090799572085024,3.9501315974652433,0,0,0.0,0,0,,,,,,False,False,2821.606916568785,False,0,0
Bellignat,01031,Bellignat,46.2402,5.6371,01,84,3525.0,7.819400000000001,450.8018518044862,20550.0,0.17563144966969055,1.1384189233826771,0.20697286793141523,2.4614570074963544,1,324,108.0,190,9,06:21:00,19:28:00,12.93,13.12,12.83,True,True,543.8271734765239,True,2,0
Béligneux,01032,Béligneux,45.8622,5.1415,01,84,3535.0,13.3568,264.65919980833735,23060.0,0.03608145248709246,1.516716454776141,0.15308004394296038,9.907450153852777,1,1743,581.0,872,7,05:37:00,24:13:00,18.08,18.6,17.6,True,True,1925.5447790226444,True,3,0
Valserhône,01033,Valserhône,46.1234,5.7944,01,84,16712.0,62.860699999999994,265.8576821448059,23780.0,0.12912226950941347,1.2434819231730467,0.17104703587962072,0.0,2,3526,881.5,1832,58,04:50:00,23:46:00,16.1,18.93,9.07,True,True,2727.642002918423,True,3,0
Belley,01034,Belley,45.743,5.6927,01,84,9388.0,22.546100000000003,416.39130492635087,21180.0,0.1646816307833257,1.1573522675217591,0.26299892125134844,0.0,0,0,0.0,0,0,,,,,,False,False,12089.384935043912,False,0,0
Valromey-sur-Séran,01036,Valromey-sur-Séran,45.9236,5.6626,01,84,1351.0,56.604099999999995,23.867529030582592,23820.0,0.026397515527950312,1.5124223602484472,0.28296296296296297,11.35113258453279,0,0,0.0,0,0,,,,,,False,False,8399.164826607983,False,0,0
Beynost,01043,Beynost,45.8359,4.9964,01,84,5198.0,10.6897,486.26247696380625,28730.0,0.061665971903666836,1.4791753653300825,0.18676119733013347,8.523725336442222,2,1743,435.8,856,8,05:37:00,24:04:00,13.2,18.45,0.58,True,True,711.5219536297096,True,3,0
Blyes,01047,Blyes,45.8442,5.2515,01,84,1401.0,9.4245,148.65510106636955,27110.0,0.03143302668092585,1.6023670350582475,0.09300084366306943,13.729235367782545,0,0,0.0,0,0,,,,,,False,False,7810.07444565465,False,0,0
La Boisse,01049,La Boisse,45.8483,5.0262,01,84,3449.0,9.4246,365.9571759013645,26780.0,0.04964971564778261,1.5698515982912478,0.15806798597483357,7.6741214945624225,0,0,0.0,0,0,,,,,,False,False,2055.4301143738676,False,0,0
Bourg-en-Bresse,01053,Bourg-en-Bresse,46.2027,5.2469,01,84,42372.0,24.0323,1763.1271247446145,20210.0,0.2185285996253635,0.9921694059276552,0.22846038031936647,0.0,5,5167,574.1,2045,49,05:17:00,24:29:00,12.42,19.2,0.55,True,True,1759.1821660804087,True,3,0
Bourg-Saint-Christophe,01054,Bourg-Saint-Christophe,45.8842,5.1393,01,84,1562.0,8.9982,173.5902736102776,27320.0,0.02391641002339041,1.7013146702027517,0.13733721367754548,11.979833590407551,0,0,0.0,0,0,,,,,,False,False,4039.753922110062,False,0,0
Brens,01061,Brens,45.7163,5.69,01,84,1123.0,6.8848,163.11294445735533,25110.0,0.023431383712483263,1.6163665948258146,0.21790234070616654,4.735759744898309,0,0,0.0,0,0,,,,,,False,False,14941.954574542773,False,0,0
Bressolles,01062,Bressolles,45.8714,5.0984,01,84,1028.0,7.6556,134.28078791995404,28710.0,0.029844668944438928,1.625657298800119,0.16834372428115252,12.335092411397394,0,0,0.0,0,0,,,,,,False,False,3207.4567062401334,False,0,0
Briord,01064,Briord,45.768,5.4832,01,84,1119.0,12.3156,90.86037221085452,23440.0,0.03486168480472184,1.5311078651318086,0.11278335934963121,9.693633147022666,0,0,0.0,0,0,,,,,,False,False,15946.02856415427,False,0,0
Buellas,01065,Buellas,46.2116,5.1468,01,84,1899.0,10.2478,185.308066121509,26810.0,0.03470843805702109,1.5481886723195906,0.20829569227428665,7.766285280887449,0,0,0.0,0,0,,,,,,False,False,4074.074473153479,False,0,0
Certines,01069,Certines,46.1336,5.2638,01,84,1531.0,16.0212,95.56088183157317,25570.0,0.020200978589318287,1.567712047586183,0.18966183396206654,7.793006222832955,0,0,0.0,0,0,,,,,,False,False,1829.564352126632,False,0,0
Cessy,01071,Cessy,46.3157,6.082,01,84,5832.0,6.4024,910.9084093464951,42540.0,0.03198331467746688,1.5472160323423017,0.10400533387295781,4.726914202799764,0,0,0.0,0,0,,,,,,False,False,17558.750420012722,False,0,0
Ceyzériat,01072,Ceyzériat,46.1822,5.3191,01,84,3328.0,9.2286,360.61807858180003,25320.0,0.053561386570135684,1.4589443944076257,0.22871299907055473,6.006801481987354,1,329,109.7,190,9,06:21:00,19:23:00,12.84,13.03,12.75,True,True,518.718383374539,True,2,0
Ceyzérieu,01073,Ceyzérieu,45.8368,5.7197,01,84,1064.0,19.855999999999998,53.58581788879936,25250.0,0.03624210764139181,1.528737928617117,0.28833470380811477,10.63810102931052,0,0,0.0,0,0,,,,,,False,False,4629.021007787661,False,0,0
Chalamont,01074,Chalamont,46.0149,5.1735,01,84,2533.0,32.992399999999996,76.77525733199163,23720.0,0.08584474885844749,1.378082191780822,0.19614779874213836,16.511755863720502,0,0,0.0,0,0,,,,,,False,False,9465.521719924414,False,0,0
Chaleins,01075,Chaleins,46.0361,4.7999,01,84,1505.0,17.0937,88.04413321867122,24890.0,0.03221595270627844,1.5784069825302909,0.13581414567386346,9.943158838454893,0,0,0.0,0,0,,,,,,False,False,6867.849132380282,False,0,0
Challex,01078,Challex,46.1765,5.9735,01,84,1632.0,8.7143,187.27838151084998,44460.0,0.025637715365372463,1.5330853138343061,0.17553141055521682,10.053913346795255,0,0,0.0,0,0,,,,,,False,False,3654.302592491856,False,0,0
Chaneins,01083,Chaneins,46.0947,4.8517,01,84,1046.0,12.7292,82.17327090469158,25580.0,0.02696078431372549,1.6004901960784315,0.14217098943323728,13.759400521027525,0,0,0.0,0,0,,,,,,False,False,9651.650849788624,False,0,0
Château-Gaillard,01089,Château-Gaillard,45.9723,5.3091,01,84,2443.0,16.0678,152.04321686851966,25170.0,0.04218251817159274,1.576344247769669,0.12696926664423547,7.997603226768994,0,0,0.0,0,0,,,,,,False,False,3239.3140778503657,False,0,0
Châtillon-la-Palud,01092,Châtillon-la-Palud,45.9757,5.246,01,84,1698.0,14.097999999999999,120.44261597389702,25470.0,0.0301815772691138,1.5968662594621708,0.1736887273902991,9.840564410338452,0,0,0.0,0,0,,,,,,False,False,7771.478162620324,False,0,0
Châtillon-sur-Chalaronne,01093,Châtillon-sur-Chalaronne,46.1264,4.9549,01,84,5250.0,18.0806,290.3664701392653,23430.0,0.11291343025222869,1.2513120182010904,0.29129290198102814,13.961607793507088,0,0,0.0,0,0,,,,,,False,False,11463.880157553227,False,0,0
Chaveyriat,01096,Chaveyriat,46.1991,5.0534,01,84,1078.0,16.7848,64.22477479624422,23940.0,0.030324749282780707,1.6294782535103054,0.16926676129941626,14.897435118838304,0,0,0.0,0,0,,,,,,False,False,4024.6231726581977,False,0,0
Chazey-Bons,01098,Chazey-Bons,45.8007,5.6678,01,84,1142.0,15.57,73.34617854849068,22520.0,0.03185014647012288,1.5446257388152762,0.21366614507041715,6.700307292479875,0,0,0.0,0,0,,,,,,False,False,5401.1498720254385,False,0,0
Chazey-sur-Ain,01099,Chazey-sur-Ain,45.8937,5.2604,01,84,1632.0,22.08,73.91304347826087,26780.0,0.05978633356428958,1.496927868468156,0.16901681935109547,7.833694309826032,0,0,0.0,0,0,,,,,,False,False,5250.997613356981,False,0,0
Chevry,01103,Chevry,46.2841,6.0474,01,84,2372.0,5.8225999999999996,407.37814721945523,44010.0,0.020110251115575916,1.6027193461709057,0.08264877342754724,3.343183963664565,0,0,0.0,0,0,,,,,,False,False,16062.627209118707,False,0,0
Civrieux,01105,Civrieux,45.9208,4.8895,01,84,2016.0,20.1717,99.94199794761968,28920.0,0.017072816853927274,1.6442476532411912,0.12388151025547785,10.494323517457568,0,0,0.0,0,0,,,,,,False,False,3547.6218941504835,False,0,0
Coligny,01108,Coligny,46.3889,5.3352,01,84,1360.0,16.8801,80.56824307912868,23750.0,0.05162845796515815,1.400939270469139,0.29986744969478596,17.37124913756012,0,0,0.0,0,0,,,,,,False,False,4985.5542598488255,False,0,0
Collonges,01109,Collonges,46.1397,5.9007,01,84,2398.0,16.3303,146.84359748443077,33820.0,0.042092301628423895,1.4988845211123503,0.09731421310794137,16.60766985231242,0,0,0.0,0,0,,,,,,False,False,4693.485304702303,False,0,0
Confrançon,01115,Confrançon,46.2732,5.06,01,84,1356.0,18.179000000000002,74.59156169206226,24350.0,0.03076923076923077,1.5196581196581196,0.1348563006632277,16.373063164810613,0,0,0.0,0,0,,,,,,False,False,4362.944158863335,False,0,0
Corbonod,01118,Corbonod,45.9668,5.7902,01,84,1333.0,32.0646,41.57232586715568,27120.0,0.04065173237029292,1.5395045652633073,0.20863458668149581,12.48146565710112,2,717,358.5,374,11,05:07:00,21:51:00,16.69,16.73,16.65,True,True,3207.397481698682,True,2,0
Cormoranche-sur-Saône,01123,Cormoranche-sur-Saône,46.2459,4.8305,01,84,1179.0,9.944099999999999,118.56276586116392,25480.0,0.04449152542372881,1.5614406779661016,0.21030042918454936,9.123216826489164,0,0,0.0,0,0,,,,,,False,False,3555.024755283706,False,0,0
Bresse Vallons,01130,Bresse Vallons,46.3271,5.1822,01,84,2388.0,26.1665,91.26172778170562,24120.0,0.02098635886673662,1.6295907660020987,0.16005014625992478,14.699623023577779,0,0,0.0,0,0,,,,,,False,False,9653.01553843323,False,0,0
Crottet,01134,Crottet,46.2848,4.876,01,84,1847.0,12.271400000000002,150.51257395244224,24310.0,0.033854166666666664,1.5533854166666667,0.21095444685466377,6.967342333119224,1,655,327.5,464,5,06:27:00,20:33:00,13.52,14.1,12.93,True,True,2290.2922988965856,True,2,0
Crozet,01135,Crozet,46.2906,5.9929,01,84,2416.0,27.2474,88.66901062119689,44040.0,0.021111753539258243,1.634145641375144,0.11246575714305863,5.150854289668012,0,0,0.0,0,0,,,,,,False,False,14984.747749362694,False,0,0
Culoz-Béon,01138,Culoz-Béon,45.8553,5.7716,01,84,3453.0,29.307100000000002,117.82127880274744,21560.0,0.11124344268059688,1.2977607594172667,0.20938464555464287,6.192794909979262,1,1365,455.0,690,27,05:07:00,22:05:00,16.92,16.97,16.85,True,True,1446.3021912615177,True,3,0
Dagneux,01142,Dagneux,45.854,5.0748,01,84,4778.0,6.8338,699.17176387954,25320.0,0.05670376258611553,1.4462109167991521,0.15587428812486817,10.418008484813724,0,0,0.0,0,0,,,,,,False,False,1497.821364404098,False,0,0
Divonne-les-Bains,01143,Divonne-les-Bains,46.3754,6.1114,01,84,10464.0,33.8866,308.79462678462875,46650.0,0.06406530197315856,1.380007555564187,0.17295133061657506,0.0,0,0,0.0,0,0,,,,,,False,False,18055.155091458902,False,0,0
Dompierre-sur-Veyle,01145,Dompierre-sur-Veyle,46.0672,5.2167,01,84,1245.0,29.145599999999998,42.71656785243742,24100.0,0.04555831107922044,1.5451392877591401,0.20297100726898287,15.245553398980245,0,0,0.0,0,0,,,,,,False,False,7387.1799010859,False,0,0
Dortan,01148,Dortan,46.3184,5.6443,01,84,2074.0,18.776600000000002,110.4566321911315,23960.0,0.07851891356569085,1.4460486031398783,0.20261811973274862,6.529706855654354,0,0,0.0,0,0,,,,,,False,False,6566.726768566959,False,0,0
Douvres,01149,Douvres,45.9847,5.3724,01,84,1104.0,5.1978,212.39755281080457,27910.0,0.029011344591803073,1.5740033256149442,0.17792410780080622,11.231742649268057,0,0,0.0,0,0,,,,,,False,False,3788.3205114695875,False,0,0
Druillat,01151,Druillat,46.0691,5.2947,01,84,1129.0,20.870900000000002,54.09445687536234,24570.0,0.04570878182901425,1.5261548625422718,0.23754268033455508,13.723949737740009,1,240,240.0,240,1,07:05:00,21:34:00,14.48,14.48,14.48,True,True,2291.879270944192,True,2,0
Échenevex,01153,Échenevex,46.3197,6.018,01,84,2328.0,16.447400000000002,141.54212823911377,49930.0,0.0219959051400434,1.656480314236583,0.1139322372806915,4.253775791079231,0,0,0.0,0,0,,,,,,False,False,14395.766549691702,False,0,0
Fareins,01157,Fareins,46.0235,4.7682,01,84,2533.0,8.262599999999999,306.5620990971365,27070.0,0.0393852065321806,1.5398655139289146,0.20483359746434232,5.496306622280942,0,0,0.0,0,0,,,,,,False,False,5659.8837332261755,False,0,0
Farges,01158,Farges,46.1657,5.9054,01,84,1082.0,14.198,76.20791660797295,37990.0,0.04266628954124872,1.528582352476361,0.12118745852562883,14.218289079972003,0,0,0.0,0,0,,,,,,False,False,4888.307415115759,False,0,0
Feillens,01159,Feillens,46.3393,4.8866,01,84,3411.0,14.895999999999999,228.98764769065522,24360.0,0.05553674402853581,1.5000682933057445,0.20622399619940526,6.177786626340404,0,0,0.0,0,0,,,,,,False,False,5286.392774359853,False,0,0
Ferney-Voltaire,01160,Ferney-Voltaire,46.252,6.1061,01,84,12094.0,4.7865,2526.689647968244,27220.0,0.19105543679073622,1.0333215439538128,0.12417471581086505,0.0,0,0,0.0,0,0,,,,,,False,False,11608.420284662267,False,0,0
Foissiat,01163,Foissiat,46.3792,5.1851,01,84,2034.0,40.1396,50.67315070404289,23810.0,0.05214567999756758,1.4979494782957465,0.2324260019322362,18.824650685078677,0,0,0.0,0,0,,,,,,False,False,12943.600189588276,False,0,0
Francheleins,01165,Francheleins,46.0707,4.8111,01,84,1597.0,13.6625,116.8892955169259,26140.0,0.02245727048278144,1.6463852359412043,0.14814382620619587,11.694088050577355,0,0,0.0,0,0,,,,,,False,False,7176.487817676539,False,0,0
Frans,01166,Frans,45.9905,4.7819,01,84,2582.0,8.0891,319.19496606544607,27060.0,0.030977734753146177,1.5759922555663117,0.16097369454259913,6.402649358926097,0,0,0.0,0,0,,,,,,False,False,4741.091963219569,False,0,0
Béard-Géovreissiat,01170,Béard-Géovreissiat,46.1884,5.5497,01,84,1048.0,4.6907,223.4208113927559,24070.0,0.022248519080696902,1.640489023358358,0.11087946166063617,6.298580498077377,0,0,0.0,0,0,,,,,,False,False,1390.6243573419767,False,0,0
Gex,01173,Gex,46.3515,6.0488,01,84,13627.0,31.9377,426.6744317843802,35280.0,0.07180650490917251,1.3642979722661592,0.10084959409539161,4.726914202799764,0,0,0.0,0,0,,,,,,False,False,15078.19914165944,False,0,0
Grièges,01179,Grièges,46.2669,4.8475,01,84,1910.0,14.781500000000001,129.21557352095525,24460.0,0.0459104857971959,1.4677927705196936,0.2364979932142635,7.279417146216195,0,0,0.0,0,0,,,,,,False,False,3488.9453496514743,False,0,0
Groissiat,01181,Groissiat,46.227,5.6179,01,84,1205.0,6.192699999999999,194.58394561338352,25220.0,0.0350616498535257,1.6098312241759551,0.22801893386116526,4.487709513588249,0,0,0.0,0,0,,,,,,False,False,1542.7123657202335,False,0,0
Guéreins,01183,Guéreins,46.106,4.7839,01,84,1512.0,4.4783,337.62811781256283,25240.0,0.02711864406779661,1.5898305084745763,0.19028609447771125,14.314536738651897,0,0,0.0,0,0,,,,,,False,False,4282.8502124103725,False,0,0
Plateau d'Hauteville,01185,Plateau d'Hauteville,45.9305,5.5775,01,84,4857.0,106.3844,45.65519004666098,23080.0,0.15820224719101122,1.168988764044944,0.288517745302714,0.0,0,0,0.0,0,0,,,,,,False,False,5941.6705202915955,False,0,0
Injoux-Génissiat,01189,Injoux-Génissiat,46.0505,5.7678,01,84,1115.0,29.616500000000002,37.64793274019549,28040.0,0.031075040966334608,1.625664915480296,0.13467969279590908,8.361658865361298,0,0,0.0,0,0,,,,,,False,False,7834.321528765268,False,0,0
Izernore,01192,Izernore,46.216,5.5609,01,84,2299.0,21.3306,107.779434240012,23500.0,0.057172557172557176,1.4313929313929314,0.15075154730327145,4.869330715926022,0,0,0.0,0,0,,,,,,False,False,4155.384220113523,False,0,0
Jassans-Riottier,01194,Jassans-Riottier,45.9771,4.7626,01,84,6247.0,5.0224,1243.827652118509,24030.0,0.1124173604053214,1.3389547690843644,0.22373380235526524,5.959866943935611,0,0,0.0,0,0,,,,,,False,False,3306.196957750516,False,0,0
Jasseron,01195,Jasseron,46.2176,5.317,01,84,1917.0,18.9455,101.1849779631047,25630.0,0.02585034013605442,1.6068027210884355,0.23789473684210527,5.642807123288188,0,0,0.0,0,0,,,,,,False,False,3853.783564973934,False,0,0
Jayat,01196,Jayat,46.3698,5.1117,01,84,1261.0,16.2855,77.4308433882902,23020.0,0.02666666666666667,1.598095238095238,0.15752351097178682,21.28785782368321,0,0,0.0,0,0,,,,,,False,False,13439.11305814758,False,0,0
Jujurieux,01199,Jujurieux,46.0503,5.4122,01,84,2260.0,15.5132,145.68238661269115,23050.0,0.07964031404224792,1.3738347547556242,0.18734191676258216,10.807554072054309,0,0,0.0,0,0,,,,,,False,False,6023.18180963004,False,0,0
Lagnieu,01202,Lagnieu,45.8863,5.3396,01,84,7411.0,27.3706,270.7649814034037,23820.0,0.10659599528857479,1.3118374558303887,0.22401311296271,8.97389281867171,0,0,0.0,0,0,,,,,,False,False,7508.660240608245,False,0,0
Laiz,01203,Laiz,46.2462,4.9006,01,84,1293.0,10.390999999999998,124.43460687133098,24820.0,0.0379746835443038,1.5171790235081375,0.21284829721362228,11.403054099571849,0,0,0.0,0,0,,,,,,False,False,1972.2863275122681,False,0,0
Lent,01211,Lent,46.1165,5.1974,01,84,1512.0,31.7409,47.635700310955265,24780.0,0.05770837796142323,1.47126397628069,0.19169637682617752,10.315382210110517,0,0,0.0,0,0,,,,,,False,False,2758.719453281949,False,0,0
Leyment,01213,Leyment,45.9287,5.2927,01,84,1441.0,14.298800000000002,100.77768763812347,24160.0,0.03334542170057733,1.604545758675473,0.13205577454838074,6.821765979479448,0,0,0.0,0,0,,,,,,False,False,4693.793553568655,False,0,0
Loyettes,01224,Loyettes,45.7953,5.2163,01,84,3554.0,21.2766,167.0379665924067,23420.0,0.04437632822581077,1.4988812102254043,0.14662015855258737,12.04602885753982,0,0,0.0,0,0,,,,,,False,False,9268.705675523459,False,0,0
Malafretaz,01229,Malafretaz,46.3299,5.1462,01,84,1257.0,9.2591,135.75833504336273,24580.0,0.08650380516059297,1.440479935056244,0.2210656290697749,16.12366035874973,0,0,0.0,0,0,,,,,,False,False,9085.376717677003,False,0,0
Manziat,01231,Manziat,46.3651,4.9026,01,84,2018.0,12.7218,158.62535175839898,25260.0,0.046779810847487266,1.5666821084474845,0.2520199114637396,8.41519217367511,0,0,0.0,0,0,,,,,,False,False,3411.022777826734,False,0,0
Marboz,01232,Marboz,46.3452,5.2461,01,84,2264.0,40.3206,56.149958085941186,24540.0,0.0650887573964497,1.4733727810650887,0.2564102564102564,15.83993905537805,0,0,0.0,0,0,,,,,,False,False,11945.145992401078,False,0,0
Marlieux,01235,Marlieux,46.0542,5.0756,01,84,1185.0,17.2259,68.79176124324418,22870.0,0.09697333619577081,1.3788845183759835,0.16393396841005925,21.140573097147687,1,1726,575.3,858,8,05:17:00,22:15:00,16.95,16.97,16.93,True,True,1092.9417785514097,True,3,0
Marsonnas,01236,Marsonnas,46.3401,5.0608,01,84,1039.0,18.3546,56.60706307955498,24430.0,0.04054863526076528,1.5286692517861555,0.185455298860756,16.001050124577052,0,0,0.0,0,0,,,,,,False,False,11274.78449012235,False,0,0
Martignat,01237,Martignat,46.203,5.6099,01,84,1664.0,13.0809,127.2083725125947,24590.0,0.024577741766740536,1.5481829135963021,0.1690884122850114,7.097066234184666,0,0,0.0,0,0,,,,,,False,False,4197.619856805499,False,0,0
Massieux,01238,Massieux,45.9101,4.8279,01,84,2843.0,3.1545,901.2521794262165,28590.0,0.03481819006905996,1.5680023211807452,0.17886094883862494,10.214846962685273,0,0,0.0,0,0,,,,,,False,False,2996.8401323294706,False,0,0
Meillonnas,01241,Meillonnas,46.2451,5.3347,01,84,1426.0,17.858800000000002,79.84859005084327,26000.0,0.043504571654457,1.4903125884629853,0.21709785257992192,8.237105074078087,0,0,0.0,0,0,,,,,,False,False,6884.908581485508,False,0,0
Messimy-sur-Saône,01243,Messimy-sur-Saône,46.048,4.7609,01,84,1338.0,5.964600000000001,224.32350870133786,27580.0,0.028544845966947636,1.5843724358365356,0.18733538789697407,7.640883015925195,0,0,0.0,0,0,,,,,,False,False,3579.74733855327,False,0,0
Meximieux,01244,Meximieux,45.9047,5.2116,01,84,8247.0,13.5725,607.62571375944,24890.0,0.10956465736614336,1.3155724050523168,0.17500983124264485,10.114782945744006,1,1839,919.5,930,12,04:30:00,24:19:00,18.76,18.83,18.7,True,True,1438.78217558267,True,3,0
Mézériat,01246,Mézériat,46.2424,5.0481,01,84,2172.0,19.2464,112.85227367195942,23740.0,0.06548856548856549,1.475051975051975,0.22441486920605783,15.76850944302289,1,655,327.5,464,5,06:27:00,20:40:00,13.5,14.22,12.77,True,True,823.8213851757221,True,2,0
Mionnay,01248,Mionnay,45.8959,4.9274,01,84,2294.0,20.023,114.56824651650602,29130.0,0.026147093197727126,1.6097582051099923,0.1452745558176795,12.391792300037622,1,1759,879.5,883,7,05:17:00,21:54:00,16.61,16.62,16.6,True,True,595.3308245106082,True,3,0
Miribel,01249,Miribel,45.8444,4.941,01,84,10395.0,24.4557,425.0542818238693,26720.0,0.10713560473696,1.3120859978727188,0.1634185922793024,7.530628150109994,3,3493,698.6,880,14,05:17:00,23:58:00,13.53,18.35,0.42,True,True,2441.073479991568,True,3,0
Misérieux,01250,Misérieux,45.9745,4.8138,01,84,2008.0,7.456799999999999,269.2844115438258,27460.0,0.027548209366391185,1.615702479338843,0.1582089552238806,10.071843906877548,0,0,0.0,0,0,,,,,,False,False,7244.623912660343,False,0,0
Montagnat,01254,Montagnat,46.172,5.2776,01,84,2186.0,13.866,157.65181018318188,27200.0,0.020121315106335313,1.6644082847105215,0.2007846080270342,4.151919636956053,0,0,0.0,0,0,,,,,,False,False,2938.786817773867,False,0,0
Montceaux,01258,Montceaux,46.0978,4.8041,01,84,1196.0,10.0672,118.80165289256199,27440.0,0.027083333333333334,1.625,0.17803660565723795,14.04662558788065,0,0,0.0,0,0,,,,,,False,False,5999.124482019757,False,0,0
Montluel,01262,Montluel,45.8868,5.0185,01,84,6895.0,40.157399999999996,171.69936300656917,23590.0,0.13391851480996703,1.2467075753880295,0.18944232915955514,7.631373659570171,1,1755,585.0,884,7,04:30:00,24:08:00,18.31,18.52,17.95,True,True,5287.2469062342325,True,3,0
Montmerle-sur-Saône,01263,Montmerle-sur-Saône,46.0843,4.759,01,84,3799.0,4.1358999999999995,918.5425179525619,25970.0,0.08101640927746073,1.4032887092874806,0.2276459718488767,11.47260671852461,0,0,0.0,0,0,,,,,,False,False,3823.1784470435396,False,0,0
Montracol,01264,Montracol,46.182,5.1234,01,84,1018.0,14.6776,69.35738812884941,25180.0,0.062236188874155836,1.5134055522622718,0.17661997023039008,9.780918937167637,0,0,0.0,0,0,,,,,,False,False,6637.840227355769,False,0,0
Montréal-la-Cluse,01265,Montréal-la-Cluse,46.181,5.5976,01,84,3568.0,12.461099999999998,286.3310622657711,21010.0,0.11622125543816035,1.26911124922312,0.18526785714285715,5.348219293179421,0,0,0.0,0,0,,,,,,False,False,3054.1364023520523,False,0,0
Montrevel-en-Bresse,01266,Montrevel-en-Bresse,46.3262,5.1122,01,84,2743.0,10.0002,274.2945141097178,22720.0,0.0995415863063944,1.282786035686796,0.3132840620019647,15.056366536136105,0,0,0.0,0,0,,,,,,False,False,8612.52952462934,False,0,0
Nantua,01269,Nantua,46.1486,5.6079,01,84,3416.0,14.531199999999998,235.0803787711958,18370.0,0.13595260499138664,1.1876941326532404,0.2240069880964882,5.156900418602212,0,0,0.0,0,0,,,,,,False,False,4840.442271002036,False,0,0
Neuville-les-Dames,01272,Neuville-les-Dames,46.1599,5.0103,01,84,1565.0,26.272199999999998,59.568669544233074,23200.0,0.07707208366433885,1.4135184911795429,0.2513738859911188,14.749569189370446,0,0,0.0,0,0,,,,,,False,False,7611.677219042942,False,0,0
Neuville-sur-Ain,01273,Neuville-sur-Ain,46.0909,5.3702,01,84,1794.0,19.895699999999998,90.17023779007525,23060.0,0.030585106382978722,1.5678191489361701,0.1835372636262514,14.8334353643346,0,0,0.0,0,0,,,,,,False,False,4097.380440098238,False,0,0
Neyron,01275,Neyron,45.8204,4.9356,01,84,2421.0,5.3001,456.783834267278,30240.0,0.038278397704148495,1.539446083183852,0.20378259165759782,6.456898804640043,0,0,0.0,0,0,,,,,,False,False,1432.1988881018053,False,0,0
Niévroz,01276,Niévroz,45.8241,5.0615,01,84,1662.0,10.433800000000002,159.28999980831526,28000.0,0.02360474969999278,1.6364220205010434,0.14480035084606555,7.726397189949167,0,0,0.0,0,0,,,,,,False,False,2642.4088673685123,False,0,0
Ornex,01281,Ornex,46.2779,6.0953,01,84,5082.0,5.686,893.7741822018994,37070.0,0.0884463959045994,1.3340761949748539,0.11997435455313238,2.9972255920306177,0,0,0.0,0,0,,,,,,False,False,13930.69224132297,False,0,0
Oyonnax,01283,Oyonnax,46.2599,5.6517,01,84,22480.0,36.1233,622.3130223429199,18340.0,0.2000314320743497,1.105476142636236,0.1878732734997122,0.0,1,324,108.0,190,9,06:21:00,19:28:00,12.93,13.12,12.83,True,True,115.32845123617041,True,2,0
Parcieux,01285,Parcieux,45.9197,4.8299,01,84,1315.0,3.1631,415.7314027378205,29480.0,0.02007110186461471,1.6117650056326251,0.15307535386721305,10.731504863927281,0,0,0.0,0,0,,,,,,False,False,3977.215655743275,False,0,0
Péron,01288,Péron,46.1933,5.9141,01,84,2916.0,25.9892,112.20045249565204,39700.0,0.03459637561779242,1.556836902800659,0.1,9.573842986506397,0,0,0.0,0,0,,,,,,False,False,6504.202203920637,False,0,0
Péronnas,01289,Péronnas,46.1693,5.2195,01,84,6444.0,17.8991,360.0181014687889,24100.0,0.08579367836054186,1.3341437999305314,0.2743514059344415,4.271106931094434,0,0,0.0,0,0,,,,,,False,False,2737.884610086005,False,0,0
Pérouges,01290,Pérouges,45.8789,5.1791,01,84,1387.0,19.323,71.77974434611603,26770.0,0.076158940397351,1.5016556291390728,0.22503617945007237,8.537258009787015,0,0,0.0,0,0,,,,,,False,False,2767.765259854997,False,0,0
Polliat,01301,Polliat,46.2504,5.1355,01,84,2741.0,20.2457,135.38677348770358,25060.0,0.05342270033801308,1.482562869577087,0.2357086503318968,10.078140711395218,3,655,131.0,280,7,06:27:00,20:50:00,10.62,14.38,0.77,True,True,717.6394151018856,True,2,0
Poncin,01303,Poncin,46.0918,5.4129,01,84,1803.0,19.9221,90.50250726580029,22280.0,0.09081534105326164,1.3413874020460699,0.21194721655890206,14.660092034391141,0,0,0.0,0,0,,,,,,False,False,7180.158275731869,False,0,0
Pont-d'Ain,01304,Pont-d'Ain,46.0556,5.3491,01,84,2843.0,11.236099999999999,253.0237359938057,22810.0,0.0807603738759399,1.402000244334771,0.2027865619819137,18.154093332548015,1,581,290.5,399,5,06:55:00,21:28:00,13.74,14.55,12.92,True,True,1153.2368520540983,True,2,0
Pont-de-Vaux,01305,Pont-de-Vaux,46.4415,4.9265,01,84,2204.0,7.7566,284.14511512776215,21070.0,0.17599992456148525,1.0893667912947096,0.31686971757749494,8.690707107568233,0,0,0.0,0,0,,,,,,False,False,3404.7695306294313,False,0,0
Pont-de-Veyle,01306,Pont-de-Veyle,46.2647,4.8818,01,84,1594.0,1.9566999999999999,814.6368886390352,21330.0,0.08689346146928464,1.2281130029651754,0.29038900151407376,8.894375824365943,0,0,0.0,0,0,,,,,,False,False,917.0235290564431,False,0,0
Prévessin-Moëns,01313,Prévessin-Moëns,46.2594,6.0722,01,84,9153.0,12.089500000000001,757.1032714338888,44430.0,0.04817072651562434,1.41866955411604,0.09971022142681325,2.733194937875509,0,0,0.0,0,0,,,,,,False,False,13086.199266518688,False,0,0
Priay,01314,Priay,46.019,5.2829,01,84,1842.0,15.7354,117.06089454351336,25110.0,0.071588672546738,1.4563443388853938,0.16214827669402218,9.626718610044735,0,0,0.0,0,0,,,,,,False,False,4340.195452383174,False,0,0
Replonges,01320,Replonges,46.307,4.8784,01,84,3956.0,16.6817,237.14609422301086,24890.0,0.04150096705421802,1.5242286220834242,0.2021561534971606,5.803866660420999,0,0,0.0,0,0,,,,,,False,False,4140.029887169281,False,0,0
Reyrieux,01322,Reyrieux,45.9368,4.8314,01,84,5358.0,15.697899999999999,341.3195395562464,29130.0,0.03272822845875418,1.5932390090389827,0.19322374696045083,9.466049917506277,0,0,0.0,0,0,,,,,,False,False,5267.141962041627,False,0,0
Rignieux-le-Franc,01325,Rignieux-le-Franc,45.9513,5.1675,01,84,1180.0,15.0969,78.16174181454471,26270.0,0.03189066059225513,1.6150341685649203,0.1847922192749779,16.173119022530482,0,0,0.0,0,0,,,,,,False,False,5856.38547944065,False,0,0
Saint-André-de-Corcy,01333,Saint-André-de-Corcy,45.9287,4.9529,01,84,3370.0,20.976,160.65980167810832,26550.0,0.07181505480011183,1.4045568879419759,0.24222266160617723,12.21611890060826,1,1833,611.0,936,8,05:17:00,22:50:00,16.96,17.55,16.65,True,True,436.7974459396636,True,3,0
Saint-André-sur-Vieux-Jonc,01336,Saint-André-sur-Vieux-Jonc,46.15,5.143,01,84,1229.0,24.5361,50.08946002013359,24070.0,0.03660876893199209,1.5095580277916325,0.19004103318482238,9.916515786719891,0,0,0.0,0,0,,,,,,False,False,2868.540289037431,False,0,0
Saint-Bénigne,01337,Saint-Bénigne,46.4517,4.952,01,84,1359.0,16.483900000000002,82.44408180103008,23070.0,0.04424646804571735,1.5122358385337573,0.21699803069701482,13.256845828024899,0,0,0.0,0,0,,,,,,False,False,5195.358402319979,False,0,0
Groslée-Saint-Benoit,01338,Groslée-Saint-Benoit,45.7011,5.5823,01,84,1227.0,28.6844,42.775864232823416,23430.0,0.03841418818623269,1.5014427270782937,0.2264173063031063,10.276969010581412,0,0,0.0,0,0,,,,,,False,False,17278.537664109626,False,0,0
Saint-Bernard,01339,Saint-Bernard,45.95,4.7419,01,84,1590.0,3.2081999999999997,495.6050121563494,32220.0,0.03481254871865635,1.6318866085914947,0.2784058670198731,6.5042665902890855,0,0,0.0,0,0,,,,,,False,False,2073.4052355041263,False,0,0
Saint-Cyr-sur-Menthon,01343,Saint-Cyr-sur-Menthon,46.2751,4.9669,01,84,1890.0,17.040499999999998,110.91223849065463,24170.0,0.03526922203065862,1.598292500486393,0.1785571354781575,13.457826144349143,0,0,0.0,0,0,,,,,,False,False,4067.5176121520694,False,0,0
Saint-Denis-lès-Bourg,01344,Saint-Denis-lès-Bourg,46.2097,5.1825,01,84,6160.0,12.6339,487.57707437924944,25580.0,0.08357839586337859,1.3707740167693365,0.24497574485773102,5.0165980059571265,0,0,0.0,0,0,,,,,,False,False,2710.953633831298,False,0,0
Saint-Denis-en-Bugey,01345,Saint-Denis-en-Bugey,45.9497,5.326,01,84,2246.0,2.6136,859.3510866238139,23670.0,0.06805682776791695,1.3929686879314223,0.20628820093248715,11.81928275148455,0,0,0.0,0,0,,,,,,False,False,1281.971398426044,False,0,0
Saint-Didier-de-Formans,01347,Saint-Didier-de-Formans,45.9587,4.7767,01,84,2203.0,6.6018,333.69687055045597,28190.0,0.013857577776484338,1.6218807863961662,0.18021639794455147,8.207175350072605,0,0,0.0,0,0,,,,,,False,False,4880.810432654511,False,0,0
Saint-Didier-sur-Chalaronne,01348,Saint-Didier-sur-Chalaronne,46.1877,4.823,01,84,2934.0,25.151500000000002,116.65308232113392,23560.0,0.06057898901318413,1.4625759732393637,0.21273195905080394,10.889014177984336,0,0,0.0,0,0,,,,,,False,False,4777.264432242559,False,0,0
Saint-Étienne-du-Bois,01350,Saint-Étienne-du-Bois,46.2755,5.2793,01,84,2584.0,28.645300000000002,90.20677039514335,24380.0,0.07383499504819886,1.4356972025334733,0.23216044121548698,8.469830975080699,0,0,0.0,0,0,,,,,,False,False,8827.824037191425,False,0,0
Saint-Étienne-sur-Chalaronne,01351,Saint-Étienne-sur-Chalaronne,46.1451,4.8694,01,84,1637.0,21.1006,77.58073230145115,23960.0,0.05553216158395485,1.5269703410253426,0.15653215162417908,13.333105106140957,0,0,0.0,0,0,,,,,,False,False,10397.858710065513,False,0,0
Sainte-Euphémie,01353,Sainte-Euphémie,45.9651,4.7927,01,84,1757.0,4.6401,378.65563242171504,27990.0,0.01786385605555853,1.6693422268831783,0.14650689099039346,8.182424940867342,0,0,0.0,0,0,,,,,,False,False,5934.202492914393,False,0,0
Saint-Genis-Pouilly,01354,Saint-Genis-Pouilly,46.2556,6.0368,01,84,14432.0,9.808200000000001,1471.4218714952792,30790.0,0.10525758798395435,1.2670973896990936,0.09116928958446717,2.754235871400213,0,0,0.0,0,0,,,,,,False,False,13168.697513724195,False,0,0
Saint-Jean-de-Gonville,01360,Saint-Jean-de-Gonville,46.2184,5.9395,01,84,2096.0,12.2375,171.27681307456587,42220.0,0.02819747700276673,1.5944444773046351,0.11885970451454064,8.550558071247753,0,0,0.0,0,0,,,,,,False,False,8359.24048318414,False,0,0
Saint-Jean-de-Niost,01361,Saint-Jean-de-Niost,45.8384,5.2066,01,84,1866.0,14.0633,132.6857849864541,28140.0,0.021526557494124392,1.6430570742460615,0.15725829618616327,11.59455029776503,0,0,0.0,0,0,,,,,,False,False,6435.674004520482,False,0,0
Saint-Jean-le-Vieux,01363,Saint-Jean-le-Vieux,46.028,5.3799,01,84,1839.0,15.3112,120.10815612100946,24660.0,0.0841134967556867,1.4089724330522744,0.1848617421690845,7.872095612297841,0,0,0.0,0,0,,,,,,False,False,3602.929504188001,False,0,0
Saint-Jean-sur-Veyle,01365,Saint-Jean-sur-Veyle,46.2687,4.9203,01,84,1143.0,11.3019,101.1334377405569,24530.0,0.045548654244306416,1.5217391304347827,0.22010398613518198,10.73986723985076,1,287,143.5,280,2,06:27:00,20:26:00,7.15,13.98,0.32,True,True,971.7913936634013,True,2,0
Sainte-Julie,01366,Sainte-Julie,45.8802,5.2837,01,84,1094.0,11.4459,95.58007670869044,24930.0,0.03191553092186126,1.6221326448559281,0.11870408811699863,10.427785167528398,0,0,0.0,0,0,,,,,,False,False,7376.73965000125,False,0,0
Saint-Laurent-sur-Saône,01370,Saint-Laurent-sur-Saône,46.3053,4.8395,01,84,1810.0,0.5158,3509.1120589375723,19550.0,0.1466057145863798,1.0576538181347719,0.22972076922988935,3.361345649310088,0,0,0.0,0,0,,,,,,False,False,1158.8422503757367,False,0,0
Saint-Marcel,01371,Saint-Marcel,45.9485,4.9862,01,84,1340.0,11.6747,114.77810993001962,25130.0,0.025675635337138136,1.548448722949333,0.11908594770993239,16.465528076311177,1,1787,595.7,890,8,05:17:00,22:03:00,16.75,16.77,16.72,True,True,682.4896244420427,True,3,0
Saint-Martin-du-Frêne,01373,Saint-Martin-du-Frêne,46.1345,5.5711,01,84,1023.0,19.5042,52.45024148644907,25030.0,0.07387409408639956,1.4296851473273704,0.19354662285610125,5.927652594289895,0,0,0.0,0,0,,,,,,False,False,4677.185128221318,False,0,0
Saint-Martin-du-Mont,01374,Saint-Martin-du-Mont,46.1063,5.33,01,84,2023.0,28.1314,71.9125247943579,25490.0,0.0451899131020813,1.565137401982513,0.1940231544780727,12.484893966685435,2,352,117.3,176,5,06:55:00,19:45:00,12.79,12.83,12.77,False,False,2367.672026167835,True,2,0
Saint-Maurice-de-Beynost,01376,Saint-Maurice-de-Beynost,45.8325,4.9763,01,84,4332.0,6.955299999999999,622.8343852889165,23570.0,0.11267372092818131,1.2964086689636982,0.17680700760272142,6.592168243717694,2,1743,435.8,856,8,05:37:00,24:01:00,13.14,18.4,0.5,True,True,378.38730852791974,True,3,0
Saint-Maurice-de-Gourdans,01378,Saint-Maurice-de-Gourdans,45.819,5.172,01,84,2903.0,25.55,113.62035225048923,28170.0,0.031436677340738996,1.6388702579233858,0.16168742890285137,13.239624439932866,0,0,0.0,0,0,,,,,,False,False,4949.382953298876,False,0,0
Saint-Paul-de-Varax,01383,Saint-Paul-de-Varax,46.0949,5.1309,01,84,1634.0,25.9036,63.080035207461506,23200.0,0.05494920885849821,1.444654448541073,0.16718389165653452,14.951110250320193,1,1776,592.0,908,8,05:17:00,23:23:00,17.39,18.1,17.03,True,True,612.4458174468854,True,3,0
Saint-Rambert-en-Bugey,01384,Saint-Rambert-en-Bugey,45.953,5.4418,01,84,2190.0,28.7856,76.07970651992663,20170.0,0.15713664928468932,1.1850378970497046,0.21216605969693483,5.526808995258641,2,405,135.0,216,6,05:34:00,20:00:00,14.18,14.43,14.05,True,True,673.2040534985381,True,2,0
Saint-Sorlin-en-Bugey,01386,Saint-Sorlin-en-Bugey,45.8863,5.369,01,84,1152.0,9.1706,125.61882537674742,26690.0,0.061746381740975874,1.471238174376178,0.18944202732313686,10.550753978141307,0,0,0.0,0,0,,,,,,False,False,7803.002900864526,False,0,0
Saint-Trivier-de-Courtes,01388,Saint-Trivier-de-Courtes,46.458,5.0672,01,84,1125.0,16.5032,68.16859760531291,21030.0,0.10913845271964154,1.292922104622612,0.32392486280220323,10.934367226767556,0,0,0.0,0,0,,,,,,False,False,14041.586527541816,False,0,0
Saint-Trivier-sur-Moignans,01389,Saint-Trivier-sur-Moignans,46.0632,4.8984,01,84,1963.0,42.3241,46.380194735387164,23920.0,0.05502726211399921,1.4713429140490035,0.21207798491855548,15.978954909980784,0,0,0.0,0,0,,,,,,False,False,11986.00717942617,False,0,0
Saint-Vulbas,01390,Saint-Vulbas,45.8234,5.267,01,84,1247.0,21.5717,57.80721964425613,24750.0,0.045012858788722715,1.4990963870170564,0.1617519650115123,0.0,0,0,0.0,0,0,,,,,,False,False,10398.838315867853,False,0,0
Sault-Brénaz,01396,Sault-Brénaz,45.8612,5.4007,01,84,1021.0,5.677899999999999,179.82000387467198,21130.0,0.0989247311827957,1.3505376344086022,0.2025819265143992,11.177126103535542,0,0,0.0,0,0,,,,,,False,False,9970.027803306308,False,0,0
Sauverny,01397,Sauverny,46.3132,6.1102,01,84,1022.0,1.8836000000000002,542.5780420471438,41070.0,0.014819749495189017,1.5884968559269124,0.18771117970185017,6.812419430525981,0,0,0.0,0,0,,,,,,False,False,15950.721005505744,False,0,0
Savigneux,01398,Savigneux,45.9946,4.8559,01,84,1469.0,14.8818,98.71117741133465,26370.0,0.03125,1.578125,0.13708019191226867,10.108688729441543,0,0,0.0,0,0,,,,,,False,False,10471.076842656003,False,0,0
Ségny,01399,Ségny,46.2944,6.0732,01,84,2941.0,3.2628,901.3730538188059,42330.0,0.04861341530949069,1.4504986831957225,0.1096636261429544,5.142023425762324,0,0,0.0,0,0,,,,,,False,False,16407.738404479853,False,0,0
Sergy,01401,Sergy,46.2615,5.9872,01,84,2288.0,9.7976,233.52657793745408,42940.0,0.036836664790875696,1.551816765981164,0.14197267127360422,3.8693084122130825,0,0,0.0,0,0,,,,,,False,False,13135.629320376804,False,0,0
Serrières-de-Briord,01403,Serrières-de-Briord,45.8129,5.4424,01,84,1317.0,8.5238,154.50855252352238,22690.0,0.11562408145276237,1.379355835668265,0.21306514395693,13.642840456475652,0,0,0.0,0,0,,,,,,False,False,12990.549356689628,False,0,0
Servas,01405,Servas,46.1366,5.1845,01,84,1286.0,13.033499999999998,98.66881497679059,22670.0,0.045066933783554676,1.5046963227367811,0.14069078959598305,8.781318241149643,1,1726,863.0,868,7,05:17:00,22:26:00,17.14,17.15,17.13,True,True,1403.911050907391,True,3,0
Seyssel,01407,Seyssel,45.9477,5.8257,01,84,1008.0,2.3912,421.5456674473068,23780.0,0.10519306734676893,1.3039812299383122,0.18854104130475186,7.69189688963261,0,0,0.0,0,0,,,,,,False,False,1759.7103132249867,False,0,0
Tenay,01416,Tenay,45.9222,5.5147,01,84,1030.0,13.1999,78.03089417344071,20410.0,0.13846595223760866,1.2065221342658048,0.24777364486069337,4.944184046585738,2,929,309.7,460,14,05:14:00,21:16:00,15.81,16.03,15.7,True,True,1012.5254586725162,True,2,0
Thil,01418,Thil,45.8184,5.0189,01,84,1261.0,5.160900000000001,244.33722800286768,30620.0,0.017341028115036607,1.7112634864831817,0.1510097355267092,8.577487510805225,0,0,0.0,0,0,,,,,,False,False,1940.517453531602,False,0,0
Thoiry,01419,Thoiry,46.2448,5.9685,01,84,6569.0,28.765300000000003,228.36542639916843,38950.0,0.047099454271779743,1.4656080864810777,0.12983021483648205,5.387309558522413,0,0,0.0,0,0,,,,,,False,False,11140.624840392888,False,0,0
Thoissey,01420,Thoissey,46.1697,4.7963,01,84,1626.0,1.3325,1220.2626641651032,20430.0,0.1746339631848594,1.0712488360193264,0.29669897836046777,10.378029221174588,0,0,0.0,0,0,,,,,,False,False,4235.343555229273,False,0,0
Tossiat,01422,Tossiat,46.1355,5.3076,01,84,1425.0,10.1888,139.85945351758792,26180.0,0.027857126409985455,1.5778671732240823,0.21780332679754355,8.813854627422728,2,245,122.5,240,2,07:05:00,21:40:00,7.5,14.58,0.42,True,True,1337.0329117833141,True,2,0
Toussieux,01423,Toussieux,45.961,4.8289,01,84,1257.0,4.7892,262.4655474818341,27870.0,0.011126330261225132,1.7133304743832152,0.10258900367605252,11.381963469481214,0,0,0.0,0,0,,,,,,False,False,7163.719701312185,False,0,0
Tramoyes,01424,Tramoyes,45.8742,4.9624,01,84,1852.0,13.132,141.02954614681693,31610.0,0.019678770279729352,1.647367736981706,0.1556372671895279,7.441971894221469,0,0,0.0,0,0,,,,,,False,False,3994.012944930252,False,0,0
Val-Revermont,01426,Val-Revermont,46.2816,5.3537,01,84,2488.0,45.788999999999994,54.3361942824696,24280.0,0.05285671044620745,1.5142640076272895,0.1967226911598765,12.017862158110166,0,0,0.0,0,0,,,,,,False,False,8562.196624125168,False,0,0
Trévoux,01427,Trévoux,45.9398,4.771,01,84,7013.0,5.6337,1244.8302181514812,23920.0,0.09360606213004152,1.2994427688509913,0.15523429836005018,6.760862261184691,0,0,0.0,0,0,,,,,,False,False,3683.50337270746,False,0,0
Vaux-en-Bugey,01431,Vaux-en-Bugey,45.9184,5.3612,01,84,1201.0,8.2994,144.70925609080174,25240.0,0.031047653457528534,1.5186562961366064,0.19587132039271923,7.221369017438714,0,0,0.0,0,0,,,,,,False,False,4218.475847225148,False,0,0
Versonnex,01435,Versonnex,46.2992,6.1008,01,84,2182.0,5.8443,373.35523501531407,38970.0,0.022916130711206045,1.5803091354970324,0.12756619547152523,5.264184180788507,0,0,0.0,0,0,,,,,,False,False,15231.765010502688,False,0,0
Villars-les-Dombes,01443,Villars-les-Dombes,46.0,5.0443,01,84,5163.0,24.726100000000002,208.80769712975356,24480.0,0.1020378039630443,1.2975999223291195,0.23976221506816583,18.619509536726852,1,1910,636.7,978,8,05:17:00,23:03:00,17.15,17.77,16.82,True,True,1307.4562079415844,True,3,0
Villebois,01444,Villebois,45.8499,5.4483,01,84,1206.0,14.1065,85.49250345585368,22700.0,0.05472711121201997,1.4571318126100619,0.18721859382489334,13.390193326000322,0,0,0.0,0,0,,,,,,False,False,9037.466138975286,False,0,0
Villeneuve,01446,Villeneuve,46.0346,4.8598,01,84,1638.0,26.961100000000002,60.75419771448494,26440.0,0.014692073512849364,1.6653348829979175,0.14736136875564004,11.781822824810115,0,0,0.0,0,0,,,,,,False,False,11292.545314717087,False,0,0
Villereversure,01447,Villereversure,46.1939,5.3936,01,84,1420.0,17.5157,81.07012565869478,23600.0,0.07278846068367438,1.4547733211466403,0.2739057471157369,11.33311396413132,1,329,109.7,190,9,06:21:00,19:15:00,12.7,12.88,12.6,True,True,277.74066740149453,True,2,0
Villieu-Loyes-Mollon,01450,Villieu-Loyes-Mollon,45.929,5.2265,01,84,3849.0,15.8574,242.72579363577887,26810.0,0.035691109669046074,1.54704737183647,0.16888540850952755,12.153561891674578,0,0,0.0,0,0,,,,,,False,False,3967.287415632649,False,0,0
Viriat,01451,Viriat,46.2522,5.2257,01,84,7102.0,45.342,156.6318203872789,25470.0,0.061703383002338685,1.4755601565872103,0.20216900474646501,5.740657662231673,0,0,0.0,0,0,,,,,,False,False,4976.919133899402,False,0,0
Virieu-le-Grand,01452,Virieu-le-Grand,45.8465,5.639,01,84,1111.0,12.6538,87.79971233937631,20600.0,0.10218652942712783,1.2821863199018022,0.18264908104731747,12.238565839591194,2,833,277.7,416,14,05:14:00,21:31:00,16.06,16.28,15.95,True,True,1151.1581101239071,True,2,0
Virignin,01454,Virignin,45.7282,5.7149,01,84,1144.0,7.869800000000001,145.3658288647742,24130.0,0.03075008509793942,1.538601289674929,0.13990797991730303,4.238584367808579,0,0,0.0,0,0,,,,,,False,False,12859.287583018498,False,0,0
Vonnas,01457,Vonnas,46.2132,4.9945,01,84,3255.0,18.1721,179.120740035549,22000.0,0.09575923392612859,1.3488372093023255,0.24342715743891122,12.865872985218628,1,655,327.5,464,5,06:27:00,20:31:00,13.45,14.07,12.83,True,True,1564.5909443204428,True,2,0
Acy,02003,Acy,49.3476,3.4188,02,32,1004.0,11.547699999999999,86.94372039453745,23020.0,0.08816705336426914,1.445475638051044,0.2102665350444225,7.617677066898423,0,0,0.0,0,0,,,,,,False,False,6320.651991735523,False,0,0
Ambleny,02011,Ambleny,49.3741,3.1681,02,32,1205.0,17.2377,69.90491770943919,24380.0,0.048879837067209775,1.4989816700610998,0.20781379883624274,11.254253024177926,0,0,0.0,0,0,,,,,,False,False,12152.128139454511,False,0,0
Anizy-le-Grand,02018,Anizy-le-Grand,49.5159,3.4426,02,32,2472.0,20.9045,118.25205099380517,20610.0,0.11892671803534903,1.2857535308282595,0.23800877662855144,13.74155663300855,0,0,0.0,0,0,,,,,,False,False,2238.0770996947103,False,0,0
Athies-sous-Laon,02028,Athies-sous-Laon,49.5754,3.6905,02,32,2578.0,15.478299999999999,166.5557587073516,22820.0,0.08401613857609641,1.3984627927441258,0.20066170609024267,5.60872311975045,0,0,0.0,0,0,,,,,,False,False,4800.672469631398,False,0,0
Aulnois-sous-Laon,02037,Aulnois-sous-Laon,49.6213,3.6111,02,32,1348.0,9.7332,138.4950478773682,21970.0,0.07511416077482448,1.4139593298645636,0.1956801372747855,5.583664784219988,0,0,0.0,0,0,,,,,,False,False,5666.457282538423,False,0,0
Beaurevoir,02057,Beaurevoir,49.9965,3.332,02,32,1281.0,21.7517,58.891948675275955,19030.0,0.1571301321287346,1.2481003255234608,0.24009572151009367,9.964580360792477,0,0,0.0,0,0,,,,,,False,False,7997.598611408892,False,0,0
Beautor,02059,Beautor,49.6472,3.3361,02,32,2579.0,7.5305,342.47393931345863,17760.0,0.2103592956512743,1.088231308057478,0.22472120322629485,7.003785259168096,0,0,0.0,0,0,,,,,,False,False,2708.852334835658,False,0,0
Belleu,02064,Belleu,49.3597,3.3439,02,32,3659.0,4.4946,814.0880167311885,20140.0,0.152676399026764,1.166058394160584,0.3131898454746137,2.3902650707051247,0,0,0.0,0,0,,,,,,False,False,1139.7415719819378,False,0,0
Billy-sur-Aisne,02089,Billy-sur-Aisne,49.3555,3.3753,02,32,1130.0,7.5365,149.9369733961388,22590.0,0.09697783155473098,1.3968033358242384,0.2705032144177958,4.424317978926195,0,0,0.0,0,0,,,,,,False,False,3096.8997012555474,False,0,0
Blérancourt,02093,Blérancourt,49.51,3.149,02,32,1162.0,10.8078,107.51494291160088,19760.0,0.07002305332886213,1.3717257873038622,0.24087889704640264,13.083892619695906,0,0,0.0,0,0,,,,,,False,False,8095.815355281054,False,0,0
Bohain-en-Vermandois,02095,Bohain-en-Vermandois,49.9887,3.464,02,32,5605.0,31.7848,176.34215096524125,16190.0,0.32225992082809435,0.8750079560046816,0.2050170984454745,5.009116867791159,1,793,793.0,793,4,04:53:00,21:33:00,16.67,16.67,16.67,True,True,1489.6457528159374,True,2,0
Boué,02103,Boué,50.0101,3.7126,02,32,1315.0,10.693900000000001,122.96729911444841,20360.0,0.1127946127946128,1.254208754208754,0.23024316109422494,6.817428815727061,0,0,0.0,0,0,,,,,,False,False,12023.710863467586,False,0,0
Braine,02110,Braine,49.3488,3.5357,02,32,2248.0,11.5885,193.9854165767787,20580.0,0.12879185239107357,1.2750578801329053,0.2507070955841859,11.359002106131634,0,0,0.0,0,0,,,,,,False,False,11421.820744231842,False,0,0
Brasles,02114,Brasles,49.0579,3.4195,02,32,1788.0,7.337899999999999,243.66644407800598,22080.0,0.14098441828744362,1.2216893532996818,0.28770595384023256,3.005745272454004,0,0,0.0,0,0,,,,,,False,False,2319.425267010816,False,0,0
Bruyères-et-Montbérault,02128,Bruyères-et-Montbérault,49.5184,3.6698,02,32,1411.0,11.575999999999999,121.8901174844506,23910.0,0.07155454246163162,1.3503156891681145,0.26522815961196616,7.150770497241805,0,0,0.0,0,0,,,,,,False,False,6664.8530939727025,False,0,0
Bucy-le-Long,02131,Bucy-le-Long,49.39,3.3923,02,32,1947.0,12.8911,151.0344346099247,23900.0,0.0594273692699972,1.48517532707867,0.2238365187745128,5.198370137578071,0,0,0.0,0,0,,,,,,False,False,2971.5240609016523,False,0,0
Buironfosse,02135,Buironfosse,49.958,3.8371,02,32,1122.0,17.6501,63.56904493458961,19400.0,0.11587982832618025,1.3068669527896997,0.23377777777777778,10.620708042388985,0,0,0.0,0,0,,,,,,False,False,16741.956657747363,False,0,0
La Capelle,02141,La Capelle,49.9705,3.9146,02,32,1745.0,12.271199999999999,142.20288154377732,18690.0,0.1751869334112586,1.0800060338579323,0.2723171960089283,5.5309867231799466,0,0,0.0,0,0,,,,,,False,False,11119.278945818083,False,0,0
Charly-sur-Marne,02163,Charly-sur-Marne,48.9821,3.2936,02,32,2594.0,20.6373,125.69473719914912,21500.0,0.15215589840145996,1.1941162913885452,0.21563950008207897,10.06320252864339,0,0,0.0,0,0,,,,,,False,False,2564.446542342629,False,0,0
Charmes,02165,Charmes,49.6524,3.3834,02,32,1568.0,3.6652,427.80748663101605,20900.0,0.11554460262209387,1.253968685478886,0.24840143815958268,6.384877929296521,0,0,0.0,0,0,,,,,,False,False,1160.1251781849335,False,0,0
Château-Thierry,02168,Château-Thierry,49.0556,3.3784,02,32,15097.0,16.9777,889.2252778644929,19150.0,0.2838057319205381,0.9004238334876196,0.21695050604366872,0.0,1,2984,373.0,1457,12,04:44:00,24:49:20,14.18,24.81,0.0,True,True,2973.4911288032813,True,3,0
Chauny,02173,Chauny,49.6185,3.2192,02,32,11596.0,13.309800000000001,871.2377346015717,18580.0,0.23864109683490403,0.9996723608206016,0.22381194891133852,4.443190211352537,1,1203,1203.0,1203,3,,24:36:00,20.93,20.93,20.93,True,True,872.0599271843895,True,3,0
Chézy-sur-Marne,02186,Chézy-sur-Marne,48.9857,3.3882,02,32,1296.0,22.5872,57.37762980803287,24080.0,0.12141652613827993,1.27318718381113,0.32798165137614677,7.805307743574398,1,1799,449.8,1076,4,05:04:00,24:49:20,20.42,24.81,18.1,True,True,1857.985124537195,True,3,0
Chierry,02187,Chierry,49.0326,3.4321,02,32,1195.0,2.8487,419.4895917436023,24590.0,0.07633587786259542,1.3091603053435115,0.25748502994011974,4.675453948888808,0,0,0.0,0,0,,,,,,False,False,1508.5485856063804,False,0,0
Coincy,02203,Coincy,49.1548,3.4331,02,32,1308.0,17.2427,75.85818926270248,20580.0,0.10197531893205641,1.3906245028165878,0.18779305238201016,11.727262050716396,0,0,0.0,0,0,,,,,,False,False,13087.207653108444,False,0,0
Courmelles,02226,Courmelles,49.3456,3.2994,02,32,1808.0,6.7402,268.24129847779,22730.0,0.09089170916823532,1.3905149163769632,0.2507988963128143,3.8637106555898986,0,0,0.0,0,0,,,,,,False,False,3841.043630627442,False,0,0
Crécy-sur-Serre,02237,Crécy-sur-Serre,49.693,3.6188,02,32,1472.0,18.0752,81.43754979198017,20300.0,0.17579645239916677,1.2113580653919274,0.23109953997616678,13.561096473261497,0,0,0.0,0,0,,,,,,False,False,10695.984232340646,False,0,0
Crépy,02238,Crépy,49.6089,3.5088,02,32,1812.0,27.7733,65.24251709375551,20740.0,0.10932544562378389,1.3556820430439858,0.20374948419590425,8.607064053097337,1,794,794.0,794,1,05:58:00,20:48:00,14.83,14.83,14.83,True,True,1688.7359388426046,True,2,0
Crézancy,02239,Crézancy,49.0405,3.5169,02,32,1166.0,7.1119,163.95056173455757,20650.0,0.1051476040252828,1.299672662285488,0.15927736398774686,10.232578310735672,0,0,0.0,0,0,,,,,,False,False,7594.933063737253,False,0,0
Crouy,02243,Crouy,49.4073,3.3684,02,32,3049.0,10.3693,294.04106352405654,20820.0,0.12332838038632987,1.2199108469539377,0.2367642222952976,4.71309675723695,1,177,177.0,177,1,04:58:00,19:28:00,14.5,14.5,14.5,True,False,919.3531851361156,True,2,0
Cuffies,02245,Cuffies,49.4086,3.3197,02,32,1733.0,5.0202,345.20537030397196,21430.0,0.1842636998789869,1.1656901866218317,0.19436199204192156,3.5688501236741748,0,0,0.0,0,0,,,,,,False,False,2754.2807840294977,False,0,0
Essigny-le-Grand,02287,Essigny-le-Grand,49.7742,3.2732,02,32,1072.0,13.3151,80.51009755841113,24790.0,0.04665419197071232,1.4684743088485612,0.28060413390942707,8.161206661733955,0,0,0.0,0,0,,,,,,False,False,4220.534222382234,False,0,0
Essômes-sur-Marne,02290,Essômes-sur-Marne,49.033,3.3427,02,32,2691.0,28.636300000000002,93.97163739728944,23660.0,0.08070462638060145,1.3581664939101699,0.19925260093286248,3.6174119012645587,0,0,0.0,0,0,,,,,,False,False,4834.677400978131,False,0,0
Étampes-sur-Marne,02292,Étampes-sur-Marne,49.0319,3.4175,02,32,1329.0,2.1935,605.8810120811489,21900.0,0.10639673661688658,1.2325945622407979,0.21808613314996994,3.8815701614057354,1,533,266.5,269,11,04:44:00,23:31:00,20.85,22.92,18.78,True,True,711.1791629203757,True,2,0
Étreillers,02296,Étreillers,49.8309,3.1565,02,32,1157.0,8.6597,133.60739979445015,23170.0,0.093892701735012,1.4441234213212166,0.2932251911567458,8.976726394443562,0,0,0.0,0,0,,,,,,False,False,10124.481829066513,False,0,0
Étreux,02298,Étreux,49.9985,3.6554,02,32,1436.0,10.332799999999999,138.97491483431403,19940.0,0.1346885481269141,1.2341091493898382,0.20614788097746872,11.490693736389085,0,0,0.0,0,0,,,,,,False,False,11821.09726357737,False,0,0
La Fère,02304,La Fère,49.6683,3.3694,02,32,2796.0,6.8092999999999995,410.614894335688,16210.0,0.3092755349020495,0.8763477947119809,0.1888337287513189,12.150163379726948,1,1160,1160.0,1160,1,05:58:00,21:10:00,15.2,15.2,15.2,True,True,1144.033579806555,True,3,0
Fère-en-Tardenois,02305,Fère-en-Tardenois,49.1833,3.5126,02,32,2836.0,20.846999999999998,136.03875857437524,19780.0,0.17808628282971894,1.1499108507140008,0.2808891752960524,17.2340274840598,0,0,0.0,0,0,,,,,,False,False,14923.569320058856,False,0,0
La Ferté-Milon,02307,La Ferté-Milon,49.1729,3.1441,02,32,2027.0,18.9491,106.97077961486296,22930.0,0.14806629834254142,1.211049723756906,0.23480392156862745,19.109586736891472,1,1221,305.2,729,4,05:02:00,22:47:20,13.32,17.76,0.0,True,True,1845.217520094832,True,3,0
La Flamengrie,02312,La Flamengrie,50.0021,3.9205,02,32,1103.0,26.5762,41.50329994506363,21260.0,0.048275083421350146,1.4492132751039193,0.16791000568280665,8.084210061584859,0,0,0.0,0,0,,,,,,False,False,9625.172804357022,False,0,0
Flavy-le-Martel,02315,Flavy-le-Martel,49.7086,3.1921,02,32,1701.0,12.8198,132.68537730697827,21150.0,0.10864228748862963,1.390900609956693,0.22675950284402357,13.518705210637412,1,741,741.0,741,1,05:59:00,20:38:00,14.65,14.65,14.65,True,True,1103.5031854581619,True,2,0
Folembray,02318,Folembray,49.55,3.2896,02,32,1355.0,8.9297,151.74081996035702,20330.0,0.10870210260802515,1.3317494838744146,0.18835146302263805,11.815076018553107,0,0,0.0,0,0,,,,,,False,False,8305.326348365368,False,0,0
Fresnoy-le-Grand,02334,Fresnoy-le-Grand,49.9553,3.417,02,32,2890.0,15.1515,190.74019074019074,19180.0,0.18862426611604632,1.1339552088815603,0.21278634178700515,12.402660866422272,1,785,785.0,785,4,06:13:00,21:37:00,15.4,15.4,15.4,True,True,1242.3154751496281,True,2,0
Gauchy,02340,Gauchy,49.8233,3.2846,02,32,5183.0,6.2473,829.6384037904375,20850.0,0.16665663098844705,1.1608398793179326,0.24205441556706214,2.720724142606333,0,0,0.0,0,0,,,,,,False,False,2060.163296178402,False,0,0
Gricourt,02355,Gricourt,49.8876,3.2394,02,32,1011.0,9.9843,101.25897659325142,24170.0,0.06419604125505111,1.4372862205524397,0.1407067913464725,5.285570162953543,0,0,0.0,0,0,,,,,,False,False,6708.619554945311,False,0,0
Grugies,02359,Grugies,49.8106,3.2787,02,32,1280.0,5.1018,250.8918420949469,22150.0,0.07789133622082665,1.384077819207076,0.1678248896515465,4.1031492195669195,0,0,0.0,0,0,,,,,,False,False,3524.3110615236133,False,0,0
Villeneuve-sur-Aisne,02360,Villeneuve-sur-Aisne,49.4409,3.9744,02,32,2792.0,25.1517,111.0064130853978,23040.0,0.11029701184445408,1.3548211586154537,0.20745785536388273,21.642419215495785,1,954,477.0,580,6,05:26:00,21:12:00,15.17,15.62,14.72,True,True,1154.0986246454274,True,2,0
Guise,02361,Guise,49.8973,3.6229,02,32,4490.0,16.2213,276.79655761252184,17320.0,0.3160940890683709,0.9009271272392432,0.27094593106011305,0.0,0,0,0.0,0,0,,,,,,False,False,14851.845215211053,False,0,0
Harly,02371,Harly,49.8404,3.3347,02,32,1569.0,3.7039999999999997,423.59611231101513,21470.0,0.1689150211003729,1.1107008636838471,0.2857690139682822,4.071328322795764,0,0,0.0,0,0,,,,,,False,False,2706.875257866531,False,0,0
Hirson,02381,Hirson,49.938,4.1132,02,32,8469.0,33.896100000000004,249.8517528565233,16460.0,0.2823217388653771,0.9185916292395824,0.23690523344704437,0.0,2,1618,404.5,1308,9,05:08:00,22:45:00,13.65,17.62,12.2,True,True,2187.104382627378,True,3,0
Holnon,02382,Holnon,49.861,3.2007,02,32,1343.0,6.3902,210.16556602297268,23890.0,0.07658159027882785,1.4039774816674244,0.2565715129547126,5.810668033834064,0,0,0.0,0,0,,,,,,False,False,7284.830349260614,False,0,0
Homblières,02383,Homblières,49.8569,3.3709,02,32,1412.0,14.6502,96.38093677902008,25090.0,0.08448540706605223,1.3748079877112136,0.22035087719298246,6.671090554818575,0,0,0.0,0,0,,,,,,False,False,5623.8898786450145,False,0,0
Jussy,02397,Jussy,49.7168,3.2357,02,32,1153.0,13.449000000000002,85.73128113614393,21880.0,0.1011056002024316,1.4025015529847331,0.19668242571473862,14.861971573698419,0,0,0.0,0,0,,,,,,False,False,2712.8459348151996,False,0,0
Laon,02408,Laon,49.5711,3.613,02,32,24220.0,44.48,544.5143884892087,18000.0,0.2652776134241514,0.9285536788965305,0.20357379754895577,0.0,1,2943,1471.5,2575,10,04:58:00,24:17:00,16.78,19.32,14.25,True,True,774.6104357791697,True,3,0
Liesse-Notre-Dame,02430,Liesse-Notre-Dame,49.6115,3.8271,02,32,1264.0,10.1012,125.13364748742723,20300.0,0.1637039364996247,1.1515436685348257,0.2556106400124063,8.812718002948683,0,0,0.0,0,0,,,,,,False,False,7207.771026478659,False,0,0
Les Septvallons,02439,Les Septvallons,49.3555,3.6776,02,32,1232.0,38.0723,32.35948445457721,22130.0,0.06342494714587738,1.4799154334038056,0.13452188006482982,24.436492758062023,0,0,0.0,0,0,,,,,,False,False,4973.756343681903,False,0,0
Marle,02468,Marle,49.7444,3.7654,02,32,2229.0,13.8,161.52173913043478,18670.0,0.23489031829605328,1.0860539436084105,0.24544957360437816,11.989344825317737,0,0,0.0,0,0,,,,,,False,False,20930.308463276047,False,0,0
Mondrepuis,02495,Mondrepuis,49.9629,4.0587,02,32,1028.0,20.298299999999998,50.6446352650222,21680.0,0.06456218371067282,1.468947879035907,0.18032763682901257,4.837238227077031,0,0,0.0,0,0,,,,,,False,False,3477.9525721885907,False,0,0
Mons-en-Laonnois,02497,Mons-en-Laonnois,49.5372,3.5531,02,32,1146.0,4.1986,272.9481255656647,23910.0,0.0561857413953231,1.4599607457949095,0.2184753399345392,5.734060190700358,0,0,0.0,0,0,,,,,,False,False,1849.4021167300493,False,0,0
Montcornet,02502,Montcornet,49.6897,4.0262,02,32,1207.0,5.7977,208.18600479500492,18140.0,0.2233502538071066,1.0744500846023688,0.25735294117647056,7.962472504422623,0,0,0.0,0,0,,,,,,False,False,21789.52379592785,False,0,0
Montescourt-Lizerolles,02504,Montescourt-Lizerolles,49.7362,3.2581,02,32,1606.0,6.2561,256.70945157526256,21160.0,0.15100965594936486,1.2595876419902137,0.16163038629348753,12.466599173061926,1,660,660.0,660,1,05:50:00,21:02:00,15.2,15.2,15.2,True,True,520.6660161748043,True,2,0
Montreuil-aux-Lions,02521,Montreuil-aux-Lions,49.0258,3.1973,02,32,1305.0,13.007100000000001,100.32981986761075,24450.0,0.0483053808681889,1.4969263273778954,0.15424959728791618,18.885913282839574,0,0,0.0,0,0,,,,,,False,False,5975.4366749470455,False,0,0
Nesles-la-Montagne,02540,Nesles-la-Montagne,49.0008,3.4486,02,32,1189.0,17.301099999999998,68.7239539682448,24290.0,0.037267080745341616,1.5300207039337475,0.19816053511705686,7.957806930231832,0,0,0.0,0,0,,,,,,False,False,4844.839907604849,False,0,0
Neuilly-Saint-Front,02543,Neuilly-Saint-Front,49.165,3.2666,02,32,1943.0,17.9834,108.04408510070398,20960.0,0.10296463853973971,1.3231497673419172,0.2101306182975197,13.386466236686502,0,0,0.0,0,0,,,,,,False,False,10680.379705659032,False,0,0
Nogentel,02554,Nogentel,49.0152,3.4042,02,32,1106.0,6.9140999999999995,159.96297421211727,24400.0,0.06030679547739654,1.4268266613586753,0.22951797072676308,4.870100566966854,0,0,0.0,0,0,,,,,,False,False,2548.7831612909117,False,0,0
Nogent-l'Artaud,02555,Nogent-l'Artaud,48.9425,3.3313,02,32,2134.0,24.1,88.54771784232365,21670.0,0.17051672581856842,1.173964937761865,0.22070740896309432,13.4689622109478,1,1799,449.8,1076,4,05:04:00,24:45:30,20.38,24.74,18.16,True,True,2974.4600568597375,True,3,0
Le Nouvion-en-Thiérache,02558,Le Nouvion-en-Thiérache,50.0097,3.808,02,32,2468.0,48.5667,50.81671186224306,19230.0,0.225557461406518,1.0566037735849056,0.26099233561920127,0.0,0,0,0.0,0,0,,,,,,False,False,15551.882646444348,False,0,0
Ognes,02566,Ognes,49.616,3.1897,02,32,1109.0,6.1777999999999995,179.51374275632102,23570.0,0.08221814004386993,1.4286770195835867,0.26902171784206375,13.801464987578019,0,0,0.0,0,0,,,,,,False,False,2492.722841000373,False,0,0
Origny-en-Thiérache,02574,Origny-en-Thiérache,49.8845,4.0133,02,32,1354.0,16.354100000000003,82.79269418677883,20100.0,0.11702127659574468,1.3049645390070923,0.2636632200886263,9.303883340825399,0,0,0.0,0,0,,,,,,False,False,6084.310352711944,False,0,0
Origny-Sainte-Benoite,02575,Origny-Sainte-Benoite,49.827,3.534,02,32,1587.0,23.2632,68.2193335396678,19410.0,0.22613114364390557,1.0839653690829136,0.20818235242978225,10.085224806848023,0,0,0.0,0,0,,,,,,False,False,15490.614099608667,False,0,0
Pasly,02593,Pasly,49.4017,3.2969,02,32,1100.0,3.0066,365.8617707709705,25110.0,0.04862739277312702,1.439290705492285,0.2760545493942177,3.3906231579214885,0,0,0.0,0,0,,,,,,False,False,4354.096623724671,False,0,0
Pinon,02602,Pinon,49.4873,3.4646,02,32,1637.0,9.6911,168.91787310006086,20050.0,0.14067154045470665,1.2449930077487055,0.22248458091514,15.988575880795608,1,834,834.0,834,2,04:58:00,24:17:00,19.32,19.32,19.32,True,True,1519.2385401586998,True,2,0
Ribemont,02648,Ribemont,49.7853,3.4707,02,32,1931.0,27.0394,71.41430653047036,19520.0,0.18949023997305509,1.1838846124008309,0.22846874785858037,14.007985199316856,0,0,0.0,0,0,,,,,,False,False,13872.345146987313,False,0,0
Saint-Erme-Outre-et-Ramecourt,02676,Saint-Erme-Outre-et-Ramecourt,49.5219,3.8564,02,32,1697.0,20.3415,83.4255094265418,21480.0,0.09052333804809053,1.379066478076379,0.1935294117647059,18.39294518357556,1,954,477.0,580,6,05:26:00,21:00:00,15.0,15.47,14.52,True,True,567.966603367455,True,2,0
Saint-Gobain,02680,Saint-Gobain,49.5966,3.394,02,32,2288.0,29.7598,76.88223711180855,21840.0,0.10689473345272345,1.3274387272668444,0.28365124991516905,9.740202442210009,0,0,0.0,0,0,,,,,,False,False,7047.675029622713,False,0,0
Saint-Michel,02684,Saint-Michel,49.931,4.15,02,32,3199.0,42.2196,75.77049522022946,18600.0,0.19161948103346008,1.1298964854544074,0.20958158614597205,2.7464567751162585,0,0,0.0,0,0,,,,,,False,False,4576.426343989516,False,0,0
Saint-Quentin,02691,Saint-Quentin,49.8475,3.279,02,32,52813.0,22.8041,2315.9431856552114,18400.0,0.32502353548395346,0.8467567351220721,0.22525665955026966,0.0,1,2746,2746.0,2746,9,,24:50:00,21.17,21.17,21.17,True,True,1532.6640994422655,True,3,0
Seboncourt,02703,Seboncourt,49.9635,3.4949,02,32,1087.0,11.8385,91.81906491531866,21160.0,0.10608719050116891,1.3674170824685752,0.23889579809272352,16.363286092273665,0,0,0.0,0,0,,,,,,False,False,4621.956942499297,False,0,0
Sinceny,02719,Sinceny,49.5931,3.2668,02,32,2005.0,13.1576,152.3834133884599,21890.0,0.12164609524008414,1.3195294597236888,0.22942505469110513,5.066669099190919,0,0,0.0,0,0,,,,,,False,False,3712.0166327087045,False,0,0
Sissonne,02720,Sissonne,49.5685,3.9298,02,32,2065.0,53.4983,38.599357362757324,19110.0,0.16979931049779673,1.1832382953162421,0.18584404608242794,0.0,0,0,0.0,0,0,,,,,,False,False,6955.501393993177,False,0,0
Soissons,02722,Soissons,49.3766,3.3235,02,32,28046.0,12.3246,2275.6113788682796,18280.0,0.2712493473487807,0.9310174757704109,0.22781172399719435,0.0,1,828,828.0,828,2,04:58:00,23:50:00,18.87,18.87,18.87,True,True,1337.2385278381025,True,2,0
Tergnier,02738,Tergnier,49.6562,3.2949,02,32,13045.0,18.3005,712.8220540422393,18550.0,0.2318681277419599,1.0479702461206402,0.2050706381217344,6.876800255806214,1,2555,2555.0,2555,6,,24:50:00,21.17,21.17,21.17,True,True,367.0989992598259,True,3,0
Vailly-sur-Aisne,02758,Vailly-sur-Aisne,49.4124,3.5174,02,32,2050.0,9.969199999999999,205.6333507202183,20750.0,0.15879701349327754,1.2229411086641715,0.26835701560360076,14.586418048035414,0,0,0.0,0,0,,,,,,False,False,8820.131010623403,False,0,0
Venizel,02780,Venizel,49.369,3.395,02,32,1324.0,3.7283,355.12163720730626,20970.0,0.1295971978984238,1.2644483362521892,0.18979744936234058,5.245328166129232,0,0,0.0,0,0,,,,,,False,False,4120.832456228299,False,0,0
Vermand,02785,Vermand,49.884,3.1555,02,32,1104.0,16.0058,68.97499656374563,22790.0,0.08167988614773475,1.452785513805335,0.2251855813083276,9.737856470753481,0,0,0.0,0,0,,,,,,False,False,11257.11976966003,False,0,0
Vervins,02789,Vervins,49.8371,3.9226,02,32,2549.0,10.476600000000001,243.3041253841895,18480.0,0.24062507634650052,1.0192717438259455,0.2300011550564565,0.0,0,0,0.0,0,0,,,,,,False,False,14436.71977320029,False,0,0
Vic-sur-Aisne,02795,Vic-sur-Aisne,49.4125,3.1108,02,32,1608.0,5.2875,304.11347517730496,21710.0,0.17245112797302503,1.2205728074932105,0.22759598311108445,15.90245044970107,0,0,0.0,0,0,,,,,,False,False,16884.425371063113,False,0,0
Viels-Maisons,02798,Viels-Maisons,48.9035,3.397,02,32,1192.0,21.537399999999998,55.34558488954099,22860.0,0.07325966684720127,1.411651403294834,0.13770225420493626,16.9671353288372,0,0,0.0,0,0,,,,,,False,False,9050.124054901358,False,0,0
Villeneuve-Saint-Germain,02805,Villeneuve-Saint-Germain,49.3809,3.3595,02,32,2616.0,4.5332,577.0757963469514,20500.0,0.1447612984511824,1.2023659249358758,0.21021630046490056,2.6496848077932946,0,0,0.0,0,0,,,,,,False,False,2021.822360129397,False,0,0
Villers-Cotterêts,02810,Villers-Cotterêts,49.2197,3.1025,02,32,10489.0,42.1061,249.10879896262063,20260.0,0.1939003991516625,1.0768407515214096,0.19830869780258076,14.838669202618116,1,826,826.0,826,2,04:58:00,23:23:00,18.42,18.42,18.42,True,True,3455.4616915404486,True,2,0
Viry-Noureuil,02820,Viry-Noureuil,49.6355,3.2483,02,32,1651.0,17.7926,92.791385182604,23370.0,0.0783562446848559,1.4419389382861467,0.22666021883120394,4.068821177739077,1,146,146.0,146,1,05:31:00,19:17:00,13.77,13.77,13.77,True,True,915.4111291890999,True,2,0
Abrest,03001,Abrest,46.0962,3.4514,03,84,2915.0,10.338199999999999,281.9639782554023,23170.0,0.05289491162283145,1.4525195346612647,0.23518704236228838,4.618762425785452,0,0,0.0,0,0,,,,,,False,False,3780.402729917044,False,0,0
Avermes,03013,Avermes,46.5961,3.3164,03,84,4074.0,15.605,261.0701698173662,23560.0,0.11079747065062047,1.3176009295664035,0.2620650862866383,4.172590221992105,0,0,0.0,0,0,,,,,,False,False,4221.289306067011,False,0,0
Beaulon,03019,Beaulon,46.5868,3.6733,03,84,1649.0,63.7523,25.865733471576714,21660.0,0.0841320040184482,1.4017219616150782,0.2751630427300463,7.65358746100949,0,0,0.0,0,0,,,,,,False,False,6723.717041566251,False,0,0
Bellerive-sur-Allier,03023,Bellerive-sur-Allier,46.1202,3.4025,03,84,8943.0,18.8158,475.29204179466194,23070.0,0.1273136136951732,1.2129840233474691,0.34318784376726985,2.1859399081071027,0,0,0.0,0,0,,,,,,False,False,2284.512291430935,False,0,0
Bessay-sur-Allier,03025,Bessay-sur-Allier,46.4507,3.371,03,84,1382.0,34.7586,39.75994430155415,22250.0,0.06946688206785137,1.444264943457189,0.20881502890173412,12.546480195193174,1,760,253.3,378,11,05:06:00,19:37:00,14.52,14.52,14.52,True,True,1123.799779587903,True,2,0
Bourbon-l'Archambault,03036,Bourbon-l'Archambault,46.5829,3.0448,03,84,2494.0,55.331,45.07418987547668,21880.0,0.14579628165747932,1.2286855803917491,0.3652357983978745,0.0,0,0,0.0,0,0,,,,,,False,False,17614.207680849897,False,0,0
Bressolles,03040,Bressolles,46.5296,3.2879,03,84,1143.0,23.605700000000002,48.42050860597228,26380.0,0.031205733268061427,1.596499823210888,0.26225552395442425,4.362246416888793,0,0,0.0,0,0,,,,,,False,False,5257.469509148372,False,0,0
Broût-Vernet,03043,Broût-Vernet,46.1995,3.2932,03,84,1217.0,31.9034,38.146404458458974,21530.0,0.07319828547301252,1.3989338227295254,0.2556250852913764,12.190920611546552,0,0,0.0,0,0,,,,,,False,False,10623.242032318725,False,0,0
Brugheas,03044,Brugheas,46.073,3.3634,03,84,1564.0,26.9936,57.93965977120502,23830.0,0.03402549377733375,1.5888277157237063,0.2423829404241189,8.099309729334204,0,0,0.0,0,0,,,,,,False,False,7923.96677513121,False,0,0
Cérilly,03048,Cérilly,46.6263,2.8085,03,84,1316.0,71.1331,18.500529289458775,20180.0,0.12354682659032566,1.284358059657444,0.3820099147761235,0.0,0,0,0.0,0,0,,,,,,False,False,15215.181362017747,False,0,0
Chamblet,03052,Chamblet,46.3264,2.7098,03,84,1074.0,20.731399999999997,51.80547382231784,22930.0,0.0391533984187983,1.5265714003623139,0.21653153369356903,8.025527111860017,0,0,0.0,0,0,,,,,,False,False,4164.571880744118,False,0,0
Chantelle,03053,Chantelle,46.2398,3.1547,03,84,1131.0,11.0101,102.72386263521676,21560.0,0.10433025015090568,1.2669611539223056,0.33229741441728294,10.1514168389552,0,0,0.0,0,0,,,,,,False,False,8140.317287906395,False,0,0
Chassenard,03063,Chassenard,46.4385,3.9722,03,84,1023.0,25.0295,40.871771309854374,21820.0,0.0569038336353367,1.507528453182642,0.21526588917278153,7.551383917118474,0,0,0.0,0,0,,,,,,False,False,5325.440524704731,False,0,0
Commentry,03082,Commentry,46.2734,2.7509,03,84,6017.0,20.951,287.1939286907546,20330.0,0.18144525086778163,1.142316188071947,0.33233632436025257,6.294297792556253,1,790,263.3,408,14,05:55:00,21:36:00,15.66,15.68,15.62,True,True,2556.2676112280146,True,2,0
Cosne-d'Allier,03084,Cosne-d'Allier,46.4876,2.8317,03,84,2006.0,25.2594,79.41597979366098,20910.0,0.13349522017945004,1.2512709446574248,0.3810026848907278,10.49667062411415,0,0,0.0,0,0,,,,,,False,False,16786.801198882215,False,0,0
Creuzier-le-Neuf,03093,Creuzier-le-Neuf,46.1785,3.4635,03,84,1225.0,11.0008,111.35553777907062,24310.0,0.02693562211933053,1.599728126510412,0.18797434682804617,5.964689681427672,0,0,0.0,0,0,,,,,,False,False,4255.0965546198995,False,0,0
Creuzier-le-Vieux,03094,Creuzier-le-Vieux,46.1632,3.4387,03,84,3205.0,11.355,282.25451343020694,25400.0,0.03721248453852516,1.5357504791972578,0.26719470839156007,3.638747996162865,0,0,0.0,0,0,,,,,,False,False,4070.6200067767586,False,0,0
Cusset,03095,Cusset,46.1342,3.4774,03,84,13316.0,31.770799999999998,419.12699711684945,20770.0,0.17803339780585473,1.1186574293782325,0.2736076419504869,4.015820478940916,0,0,0.0,0,0,,,,,,False,False,3687.499939580084,False,0,0
Désertines,03098,Désertines,46.3571,2.6253,03,84,4259.0,8.264199999999999,515.3553883013481,22100.0,0.10578496017005705,1.2919181070486656,0.3155736709931925,2.0715886771017464,0,0,0.0,0,0,,,,,,False,False,2416.6924991746437,False,0,0
Diou,03100,Diou,46.5234,3.7426,03,84,1343.0,25.7636,52.12780822555854,21080.0,0.08970524199006413,1.3713803764545887,0.3088397069112171,5.0182891209273865,0,0,0.0,0,0,,,,,,False,False,3379.354597672168,False,0,0
Domérat,03101,Domérat,46.3706,2.5462,03,84,8622.0,35.3148,244.14692989907914,22590.0,0.08728215934106806,1.3830187029650518,0.3241686472762531,5.661185019379209,0,0,0.0,0,0,,,,,,False,False,4171.891894721379,False,0,0
Dompierre-sur-Besbre,03102,Dompierre-sur-Besbre,46.5336,3.6787,03,84,2959.0,45.883900000000004,64.48885120924768,21010.0,0.15405777166437415,1.2310866574965613,0.3377104377104377,0.0,1,771,257.0,382,12,05:27:00,22:42:00,17.08,17.25,16.97,True,True,856.0901081885498,True,2,0
Le Donjon,03103,Le Donjon,46.3498,3.8003,03,84,1007.0,37.0555,27.175453036661224,18540.0,0.11728395061728394,1.2777777777777777,0.42235410484668645,0.0,0,0,0.0,0,0,,,,,,False,False,17965.899463824284,False,0,0
Doyet,03104,Doyet,46.345,2.795,03,84,1109.0,27.7592,39.95071904089455,21120.0,0.09661936900632385,1.3488448764604577,0.258926154687047,14.356388293086622,0,0,0.0,0,0,,,,,,False,False,6963.494775921214,False,0,0
Durdat-Larequille,03106,Durdat-Larequille,46.2536,2.6968,03,84,1280.0,24.582800000000002,52.06892624111167,22540.0,0.06128483276681911,1.5386879486834733,0.21732275935952167,12.038231171158847,0,0,0.0,0,0,,,,,,False,False,5682.629363756253,False,0,0
Ébreuil,03107,Ébreuil,46.1121,3.074,03,84,1306.0,23.1374,56.44540873218253,22690.0,0.09923104548727492,1.3179242528846107,0.3178607400699752,7.601499175248084,0,0,0.0,0,0,,,,,,False,False,6458.956819764538,False,0,0
Estivareilles,03111,Estivareilles,46.4248,2.6305,03,84,1119.0,11.7245,95.44117019915561,23010.0,0.06866944742944468,1.4722246576981814,0.2713390306543833,9.279882970176333,0,0,0.0,0,0,,,,,,False,False,2584.316771063934,False,0,0
Gannat,03118,Gannat,46.0991,3.1708,03,84,5610.0,36.7665,152.58455387377094,20770.0,0.1494863726870721,1.2007126424780694,0.2749255148541791,9.717969483681978,3,961,240.2,476,11,05:55:00,22:36:00,12.76,16.68,9.72,True,True,1481.2318294310426,True,2,0
Hauterive,03126,Hauterive,46.0782,3.4396,03,84,1186.0,7.9775,148.66812911313068,22750.0,0.04986551772073593,1.444645451564721,0.2657191838971594,6.05975841214395,0,0,0.0,0,0,,,,,,False,False,5470.726656248734,False,0,0
Huriel,03128,Huriel,46.3757,2.4812,03,84,2536.0,35.2959,71.8497049232347,22370.0,0.0622627603421258,1.4815644406630915,0.2640949770953431,10.395530513346676,1,264,88.0,132,4,07:36:00,20:11:00,12.56,12.58,12.55,True,True,586.8054242195155,True,2,0
Lapalisse,03138,Lapalisse,46.2613,3.6453,03,84,3138.0,32.8034,95.66081564715851,20090.0,0.15031127003592043,1.1928825385617023,0.35515410150235976,0.0,0,0,0.0,0,0,,,,,,False,False,17500.432855711075,False,0,0
Lavault-Sainte-Anne,03140,Lavault-Sainte-Anne,46.3093,2.6042,03,84,1139.0,9.0723,125.5469946981471,23460.0,0.065439672801636,1.4008179959100204,0.3365553602811951,3.736440616370489,0,0,0.0,0,0,,,,,,False,False,2941.3453290306165,False,0,0
Lurcy-Lévis,03155,Lurcy-Lévis,46.7371,2.9111,03,84,1821.0,72.1327,25.24513847395148,20010.0,0.13699222860125881,1.2627555683190475,0.32674331887507074,9.040968549301342,0,0,0.0,0,0,,,,,,False,False,16493.641034895383,False,0,0
Lusigny,03156,Lusigny,46.5731,3.4786,03,84,1620.0,44.7355,36.2128510914151,22870.0,0.04564315352697095,1.520055325034578,0.23576240048989588,11.807326050534009,0,0,0.0,0,0,,,,,,False,False,10733.080315014173,False,0,0
Magnet,03157,Magnet,46.2162,3.5097,03,84,1053.0,12.797,82.28491052590451,22400.0,0.031020890168777175,1.6086304092795425,0.1545663725837217,11.410912903813397,0,0,0.0,0,0,,,,,,False,False,6137.33965370927,False,0,0
Le Mayet-de-Montagne,03165,Le Mayet-de-Montagne,46.0605,3.6491,03,84,1383.0,29.6181,46.69441996616934,19350.0,0.15233624728946857,1.2091918238770225,0.3431045304124273,0.0,0,0,0.0,0,0,,,,,,False,False,18394.815713329048,False,0,0
Molinet,03173,Molinet,46.4613,3.9267,03,84,1104.0,26.1897,42.15397656330543,20790.0,0.06176905692673182,1.4592557030695903,0.28201627444755806,7.845233485654699,0,0,0.0,0,0,,,,,,False,False,5362.422117139026,False,0,0
Montluçon,03185,Montluçon,46.3428,2.608,03,84,33147.0,20.6816,1602.7289958223735,19420.0,0.238200934541872,0.9914343734273198,0.2842527395428346,0.0,5,2353,235.3,910,58,05:22:00,24:11:00,14.45,18.8,1.92,True,True,520.6728929756881,True,3,0
Montmarault,03186,Montmarault,46.3164,2.9561,03,84,1525.0,9.086,167.84063394232885,19010.0,0.2194787379972565,1.0768175582990398,0.3363994743758213,0.0,0,0,0.0,0,0,,,,,,False,False,10499.848807952423,False,0,0
Moulins,03190,Moulins,46.5591,3.3255,03,84,19206.0,8.7137,2204.1153585732814,19880.0,0.28749376741284643,0.8744179581542529,0.2537186926242364,0.0,2,2789,929.7,1494,27,05:06:00,22:55:00,16.15,17.82,12.9,True,True,1047.0443467577027,True,3,0
Néris-les-Bains,03195,Néris-les-Bains,46.3028,2.6809,03,84,2368.0,33.037,71.6772104004601,23450.0,0.08205096646903572,1.389141659993888,0.38574187848485375,7.149888296159233,0,0,0.0,0,0,,,,,,False,False,4610.77054220187,False,0,0
Neuilly-le-Réal,03197,Neuilly-le-Réal,46.4642,3.4381,03,84,1435.0,47.4301,30.25504900896266,23230.0,0.07270701002588614,1.4671330410777697,0.24571861520573196,13.623548274188463,0,0,0.0,0,0,,,,,,False,False,6354.448139058585,False,0,0
Neuvy,03200,Neuvy,46.5709,3.276,03,84,1475.0,18.9797,77.71461087372298,25570.0,0.03910625991882963,1.5291422554851002,0.33181229485938196,4.16949011564035,0,0,0.0,0,0,,,,,,False,False,4914.5974465743475,False,0,0
Prémilhat,03211,Prémilhat,46.3082,2.5476,03,84,2540.0,21.125300000000003,120.23497891154207,24280.0,0.07719915441716518,1.4335224140428813,0.3112190720699761,6.025977199262954,0,0,0.0,0,0,,,,,,False,False,4995.225493511851,False,0,0
Quinssaines,03212,Quinssaines,46.3093,2.4903,03,84,1528.0,25.906599999999997,58.98110906101149,23880.0,0.035128832136345566,1.6302540147158158,0.21259379499256076,9.775284923787995,0,0,0.0,0,0,,,,,,False,False,6982.460372628554,False,0,0
Saint-Germain-des-Fossés,03236,Saint-Germain-des-Fossés,46.1955,3.4315,03,84,3579.0,7.978400000000001,448.5861826932718,20490.0,0.11901653734170226,1.285060774749527,0.24851492107227335,7.098678789402916,2,1671,334.2,802,23,05:06:00,22:44:00,15.53,17.63,13.27,True,True,1529.3683632999719,True,3,0
Saint-Menoux,03247,Saint-Menoux,46.5829,3.1477,03,84,1116.0,27.5802,40.463810994844124,21130.0,0.07798949124145506,1.3878525407548967,0.21544600100123965,12.97457344291103,0,0,0.0,0,0,,,,,,False,False,11367.532358221346,False,0,0
Saint-Pourçain-sur-Sioule,03254,Saint-Pourçain-sur-Sioule,46.3047,3.3028,03,84,4884.0,35.7497,136.616531047813,20970.0,0.1564964715649647,1.1851390618513906,0.30935839803841436,7.255758261990195,0,0,0.0,0,0,,,,,,False,False,7125.217900760182,False,0,0
Saint-Rémy-en-Rollat,03258,Saint-Rémy-en-Rollat,46.1915,3.377,03,84,1774.0,21.013099999999998,84.42352627646564,24140.0,0.04284168036066913,1.5301957307582863,0.2199681315439678,7.613311302664769,0,0,0.0,0,0,,,,,,False,False,4567.247039521057,False,0,0
Saint-Victor,03262,Saint-Victor,46.3891,2.6086,03,84,2100.0,23.0919,90.94097930443142,24700.0,0.034985712542590156,1.5880876218899904,0.2824750678384981,5.148530943065884,0,0,0.0,0,0,,,,,,False,False,2888.195110257417,False,0,0
Saint-Yorre,03264,Saint-Yorre,46.0615,3.4672,03,84,2641.0,6.488300000000001,407.0403649646286,21180.0,0.1250609107673851,1.2782918687699418,0.2682884214042811,8.455403817148035,0,0,0.0,0,0,,,,,,False,False,7810.255690797632,False,0,0
Souvigny,03275,Souvigny,46.522,3.1946,03,84,1698.0,44.671800000000005,38.01055699568855,21640.0,0.13535610809100276,1.2644277386395344,0.2757598893112114,10.828421394430572,0,0,0.0,0,0,,,,,,False,False,11865.600634671015,False,0,0
Thiel-sur-Acolin,03283,Thiel-sur-Acolin,46.529,3.5721,03,84,1027.0,57.5555,17.843646567226415,21870.0,0.09608354436504472,1.4146145356340594,0.24256560866133592,13.058893968355619,0,0,0.0,0,0,,,,,,False,False,7871.027354504906,False,0,0
Toulon-sur-Allier,03286,Toulon-sur-Allier,46.5094,3.3819,03,84,1166.0,39.3944,29.598115468188375,24180.0,0.06772407955466526,1.476481589422501,0.295413358068351,7.0109537891817535,0,0,0.0,0,0,,,,,,False,False,6624.202754495078,False,0,0
Trévol,03290,Trévol,46.6363,3.3144,03,84,1643.0,40.7535,40.31555571914068,25010.0,0.034482758620689655,1.5790229885057472,0.22940817571690056,8.626039884293547,0,0,0.0,0,0,,,,,,False,False,5717.141434596423,False,0,0
Vallon-en-Sully,03297,Vallon-en-Sully,46.5467,2.6012,03,84,1457.0,37.9797,38.36259896734308,20790.0,0.12108843537414966,1.2693877551020407,0.3773841961852861,20.0295144311034,3,664,132.8,251,27,05:31:00,24:11:00,16.43,18.65,13.08,True,True,1306.787328522313,True,2,0
Varennes-sur-Allier,03298,Varennes-sur-Allier,46.314,3.3963,03,84,3549.0,24.4085,145.40016797427126,20200.0,0.16619907742765758,1.1574311409518834,0.292713720953925,7.255758261990195,1,1040,346.7,534,12,05:06:00,21:08:00,16.03,16.03,16.03,True,True,196.8770034619151,True,3,0
Vaux,03301,Vaux,46.4217,2.5679,03,84,1165.0,18.0454,64.55938909639022,22840.0,0.03384253474062706,1.6195387804193506,0.17706717169120104,9.296877797006966,2,188,47.0,82,9,06:42:00,21:25:00,10.91,14.72,0.42,True,False,2576.3890378487918,True,2,0
Vendat,03304,Vendat,46.1599,3.347,03,84,2292.0,16.741,136.9093841467057,25300.0,0.03414283987728708,1.5634411444698295,0.27287721114065444,7.071952665576975,0,0,0.0,0,0,,,,,,False,False,7399.347608836865,False,0,0
Le Vernet,03306,Le Vernet,46.1064,3.4765,03,84,1919.0,10.2113,187.92905898367496,25620.0,0.03883959339836592,1.5343416119829492,0.2668175376306985,4.846588431545269,0,0,0.0,0,0,,,,,,False,False,4210.250064740821,False,0,0
Vichy,03310,Vichy,46.1318,3.4254,03,84,25115.0,5.9079999999999995,4251.01557210562,20190.0,0.3241881382838723,0.8090838619567642,0.35489648425437087,0.0,1,1998,999.0,1023,18,05:06:00,24:36:00,18.42,19.5,17.35,True,True,662.5352985692501,True,3,0
Villebret,03314,Villebret,46.2738,2.63,03,84,1335.0,15.5198,86.01914973131097,24770.0,0.02813215818107456,1.6711882870740644,0.2100334437298552,7.856338238324977,0,0,0.0,0,0,,,,,,False,False,7002.715576018769,False,0,0
Villefranche-d'Allier,03315,Villefranche-d'Allier,46.397,2.8401,03,84,1238.0,39.9492,30.989356482733072,20340.0,0.11713215940566535,1.2884326705299673,0.25148711857980866,0.0,0,0,0.0,0,0,,,,,,False,False,13679.553326346153,False,0,0
Villeneuve-sur-Allier,03316,Villeneuve-sur-Allier,46.6753,3.2486,03,84,1024.0,26.209,39.07054828494029,22210.0,0.04315816554778914,1.5263164127626376,0.1882229373300187,14.193114380988531,2,168,56.0,92,10,06:54:00,21:39:00,10.72,14.75,5.42,True,True,1654.2682870394099,True,2,0
Yzeure,03321,Yzeure,46.5662,3.3854,03,84,12897.0,43.211999999999996,298.4587614551514,23540.0,0.12793693937706077,1.2459319786294827,0.27933144644627544,4.647104905549718,0,0,0.0,0,0,,,,,,False,False,3569.944597662318,False,0,0
Aiglun,04001,Aiglun,44.0632,6.1413,04,93,1399.0,14.649700000000001,95.49683611268489,24270.0,0.018879172828223805,1.5775651046035302,0.33666242653361517,9.355288965170379,0,0,0.0,0,0,,,,,,False,False,7119.390716759222,False,0,0
Annot,04008,Annot,43.9631,6.6631,04,93,1009.0,29.8889,33.75835176269451,20850.0,0.20188039025020277,1.0478642180991276,0.30822317218005724,0.0,3,2098,524.5,720,6,05:45:00,19:53:00,14.13,14.13,14.13,True,True,754.5643320513481,True,3,0
Banon,04018,Banon,44.0244,5.6496,04,93,1072.0,39.9664,26.822530925977823,19910.0,0.09444775813972463,1.2745917174868486,0.3331011583057224,0.0,0,0,0.0,0,0,,,,,,False,False,22360.665054779503,False,0,0
Barcelonnette,04019,Barcelonnette,44.3751,6.6463,04,93,2518.0,16.634900000000002,151.36850837696647,21030.0,0.1953964083566228,1.0568881783898705,0.2776343425409367,0.0,0,0,0.0,0,0,,,,,,False,False,24417.014390400054,False,0,0
La Brillanne,04034,La Brillanne,43.93,5.8822,04,93,1121.0,6.9374,161.58791478075358,20920.0,0.07249383058646133,1.3799449257601644,0.17404876893303897,10.012810225323388,2,871,435.5,657,6,05:07:00,20:19:00,14.99,15.2,14.78,True,True,997.4258509418858,True,2,0
Castellane,04039,Castellane,43.8485,6.4871,04,93,1472.0,122.1709,12.048695720503,21120.0,0.13371525841678994,1.1881254603442344,0.3085875421288707,0.0,0,0,0.0,0,0,,,,,,False,False,12612.275396831803,False,0,0
Céreste-en-Luberon,04045,Céreste-en-Luberon,43.853,5.5883,04,93,1219.0,32.6042,37.387821200949574,20500.0,0.0911944367949563,1.3294513045293241,0.31572759500936987,6.736643283624087,0,0,0.0,0,0,,,,,,False,False,16774.588149925705,False,0,0
Château-Arnoux-Saint-Auban,04049,Château-Arnoux-Saint-Auban,44.0801,5.9942,04,93,5107.0,18.534000000000002,275.5476421711449,21080.0,0.10147421092088561,1.26948166713297,0.27920533352621,7.811807310535198,1,843,421.5,636,6,05:07:00,20:32:00,15.21,15.42,15.0,True,True,2088.3936915321806,True,2,0
Corbières-en-Provence,04063,Corbières-en-Provence,43.7593,5.7481,04,93,1317.0,18.7932,70.07853904603793,24550.0,0.043235402106140644,1.4889212776963285,0.18524584420297432,8.466422838781757,0,0,0.0,0,0,,,,,,False,False,7978.317880923244,False,0,0
Digne-les-Bains,04070,Digne-les-Bains,44.0954,6.2495,04,93,17979.0,105.4175,170.55043043138,21480.0,0.20939171570843837,1.0214028641329158,0.27017762737868317,0.0,2,816,408.0,544,3,06:36:00,20:30:00,13.9,13.9,13.9,True,True,2239.490151744282,True,2,0
L'Escale,04079,L'Escale,44.0777,6.0363,04,93,1427.0,20.2875,70.3388786198398,23510.0,0.053625233941842106,1.4445652021784043,0.2776146719259479,10.127110040096387,0,0,0.0,0,0,,,,,,False,False,3591.800137989812,False,0,0
Forcalquier,04088,Forcalquier,43.9582,5.7842,04,93,5222.0,43.3081,120.57790574973272,20570.0,0.16121362715988954,1.146981228212972,0.29229803625100503,0.0,0,0,0.0,0,0,,,,,,False,False,9422.495407211565,False,0,0
Gréoux-les-Bains,04094,Gréoux-les-Bains,43.7628,5.8597,04,93,3084.0,69.5917,44.31562959375903,22240.0,0.10784313725490197,1.2483660130718954,0.29047927461139894,6.549929427667409,0,0,0.0,0,0,,,,,,False,False,8572.175623952318,False,0,0
Jausiers,04096,Jausiers,44.3795,6.7745,04,93,1146.0,108.3031,10.58141456708072,21510.0,0.08721451112356127,1.360211935188313,0.2619439334646997,10.200633192693894,0,0,0.0,0,0,,,,,,False,False,30338.338792279665,False,0,0
Malijai,04108,Malijai,44.0392,6.052,04,93,2020.0,26.635,75.8400600713347,21250.0,0.08640552995391705,1.3859447004608294,0.24219910846953938,16.971860369169296,0,0,0.0,0,0,,,,,,False,False,5014.4385531047965,False,0,0
Mane,04111,Mane,43.9426,5.7419,04,93,1410.0,21.934299999999997,64.282881149615,21340.0,0.07703858268779352,1.338285115084393,0.29736745546569926,3.804712115807516,0,0,0.0,0,0,,,,,,False,False,12210.216792820507,False,0,0
Manosque,04112,Manosque,43.8293,5.7896,04,93,22718.0,56.756400000000006,400.27203980520255,21170.0,0.1641420856853874,1.120885208355696,0.2537591371694313,0.0,2,871,435.5,663,6,05:07:00,20:31:00,15.19,15.4,14.98,True,True,741.7738954856596,True,2,0
Les Mées,04116,Les Mées,43.9956,5.9679,04,93,4099.0,64.7017,63.35227667897443,21460.0,0.10373320110946782,1.3109331649706129,0.2366562774487663,10.002308161474193,0,0,0.0,0,0,,,,,,False,False,7694.869766544448,False,0,0
Mison,04123,Mison,44.2629,5.8676,04,93,1112.0,31.6391,35.146385327016255,22860.0,0.05661460178614746,1.4593669051489642,0.270356972582591,8.536167933401405,0,0,0.0,0,0,,,,,,False,False,7103.903147100471,False,0,0
Oraison,04143,Oraison,43.9116,5.9232,04,93,6155.0,38.6795,159.12822037513413,23050.0,0.1063238359972203,1.31410701876303,0.29493545183714004,9.24676601562127,0,0,0.0,0,0,,,,,,False,False,2873.9046887379727,False,0,0
Peipin,04145,Peipin,44.1407,5.9447,04,93,1506.0,13.4834,111.69289645045019,21980.0,0.054380664652567974,1.459214501510574,0.2967914438502674,6.657224820507315,0,0,0.0,0,0,,,,,,False,False,5508.389996525593,False,0,0
Peyruis,04149,Peyruis,44.0351,5.9306,04,93,2798.0,23.3504,119.82664108537755,22080.0,0.07917635542333114,1.380223722096345,0.22230456817467276,14.500318509772793,0,0,0.0,0,0,,,,,,False,False,6093.083181330718,False,0,0
Pierrevert,04152,Pierrevert,43.808,5.725,04,93,3945.0,27.8659,141.57088053857942,27990.0,0.034010371206190174,1.537073185149645,0.27427015876025973,5.698443814136288,0,0,0.0,0,0,,,,,,False,False,5736.421799372318,False,0,0
Reillanne,04160,Reillanne,43.8884,5.6565,04,93,1730.0,39.1035,44.24156405436854,21480.0,0.08333333333333333,1.3154761904761905,0.2774566473988439,12.532687065725783,0,0,0.0,0,0,,,,,,False,False,13150.167940243804,False,0,0
Riez,04166,Riez,43.8358,6.0849,04,93,1610.0,40.3696,39.881494986326345,20130.0,0.17873624848096478,1.1174160503217745,0.3693783429773028,0.0,0,0,0.0,0,0,,,,,,False,False,18332.980858132003,False,0,0
Saint-André-les-Alpes,04173,Saint-André-les-Alpes,43.9711,6.5043,04,93,1029.0,49.195299999999996,20.91663227991292,23120.0,0.1323251417769376,1.1852551984877127,0.37087378640776697,0.0,1,819,409.5,546,3,06:36:00,19:54:00,13.3,13.3,13.3,True,True,215.43774897295398,True,2,0
Saint-Étienne-les-Orgues,04178,Saint-Étienne-les-Orgues,44.0648,5.7798,04,93,1286.0,48.750699999999995,26.379108402546017,20660.0,0.08736224028656953,1.301487893971867,0.38798727552967616,11.85860081870585,0,0,0.0,0,0,,,,,,False,False,17393.371363541115,False,0,0
Saint-Michel-l'Observatoire,04192,Saint-Michel-l'Observatoire,43.9135,5.7276,04,93,1329.0,28.210900000000002,47.10945060242672,22620.0,0.0455974662637713,1.4701314158124905,0.27416718429376996,6.726470905837767,0,0,0.0,0,0,,,,,,False,False,11339.858217773053,False,0,0
Sainte-Tulle,04197,Sainte-Tulle,43.7822,5.7662,04,93,3558.0,17.087699999999998,208.2199476816658,22180.0,0.08671570836527837,1.386905959164339,0.22986028622223315,5.563747632857035,0,0,0.0,0,0,,,,,,False,False,5051.389142105231,False,0,0
Seyne,04205,Seyne,44.3435,6.3802,04,93,1379.0,86.32770000000001,15.974015292889767,20830.0,0.1303417963922864,1.2736870473584694,0.34157323753668717,0.0,0,0,0.0,0,0,,,,,,False,False,24083.316322593426,False,0,0
Sisteron,04209,Sisteron,44.1993,5.9276,04,93,7850.0,50.5424,155.3151413466713,20900.0,0.17093403304608268,1.1419698642069953,0.26486066687200216,0.0,1,899,449.5,684,6,05:07:00,20:45:00,15.42,15.63,15.22,True,True,1818.7466748393424,True,2,0
Valensole,04230,Valensole,43.8386,5.9392,04,93,3137.0,127.8758,24.53161583348843,21900.0,0.08117462650811277,1.3519094020426452,0.27064458548303555,12.043960217496064,0,0,0.0,0,0,,,,,,False,False,10295.983035543102,False,0,0
Villeneuve,04242,Villeneuve,43.8848,5.8509,04,93,4360.0,25.521,170.8397006386897,22910.0,0.04527270667581383,1.5100693577884552,0.18611157337640943,7.889382898045019,0,0,0.0,0,0,,,,,,False,False,5553.761326530105,False,0,0
Volonne,04244,Volonne,44.1232,6.0333,04,93,1633.0,25.264200000000002,64.63691706050459,22980.0,0.09101654846335698,1.346335697399527,0.27367135003054366,11.945555157075884,0,0,0.0,0,0,,,,,,False,False,7438.416505841967,False,0,0
Volx,04245,Volx,43.8677,5.8252,04,93,3243.0,18.6906,173.50967866200122,23570.0,0.051921780175320294,1.418745785569791,0.2541059807871088,5.136319541795532,0,0,0.0,0,0,,,,,,False,False,5570.0697345602,False,0,0
Ancelle,05004,Ancelle,44.6195,6.2288,05,93,1017.0,51.0833,19.90865899423099,23090.0,0.04080677799447293,1.4178020288948892,0.26723262425483224,4.3408672208889865,0,0,0.0,0,0,,,,,,False,False,8872.876756030262,False,0,0
L'Argentière-la-Bessée,05006,L'Argentière-la-Bessée,44.7835,6.4716,05,93,2288.0,65.2908,35.04322201596549,20810.0,0.11905747607308316,1.2981037667399995,0.23741601356451622,3.6755561804538197,2,2009,502.2,1189,16,04:41:00,32:07:00,27.39,27.43,27.28,True,True,6727.104462666586,True,3,0
La Bâtie-Neuve,05017,La Bâtie-Neuve,44.5817,6.2151,05,93,2628.0,27.4936,95.58588180522013,22770.0,0.030852994555353903,1.5226860254083485,0.18536959019532745,12.159228916431307,0,0,0.0,0,0,,,,,,False,False,6008.9948053169755,False,0,0
Briançon,05023,Briançon,44.8995,6.6536,05,93,11411.0,28.302,403.187053918451,21630.0,0.14159105604104089,1.1495022462118494,0.21466893835632395,0.0,1,2005,401.0,1189,17,04:41:00,32:07:00,22.11,27.43,0.88,True,True,1946.4003537680578,True,3,0
Châteauroux-les-Alpes,05036,Châteauroux-les-Alpes,44.6424,6.4834,05,93,1234.0,91.80590000000001,13.441401914256055,22240.0,0.03677959076836844,1.5063280734896962,0.2143623787626615,6.903941048609362,0,0,0.0,0,0,,,,,,False,False,8431.863476593642,False,0,0
Chorges,05040,Chorges,44.5473,6.287,05,93,3146.0,57.328100000000006,54.877102154091965,22770.0,0.0883057648748799,1.3367825354820542,0.2523693463377875,15.347258766583195,1,1984,496.0,1163,16,04:41:00,31:11:00,26.41,26.5,26.17,True,True,1208.416443389358,True,3,0
Crots,05045,Crots,44.4985,6.4571,05,93,1195.0,56.574600000000004,21.122553230601717,21370.0,0.041683294064141924,1.5345252584439502,0.2135558548423626,9.238678986179433,0,0,0.0,0,0,,,,,,False,False,8241.097279657974,False,0,0
Embrun,05046,Embrun,44.5806,6.475,05,93,6412.0,35.7067,179.57414154766474,21750.0,0.1518163915488341,1.1352680583952486,0.3239905223771436,0.0,1,1994,664.7,1163,14,04:41:00,31:36:00,26.91,26.92,26.88,True,True,2285.8518316810682,True,3,0
Gap,05061,Gap,44.5797,6.0616,05,93,41293.0,108.77940000000001,379.6031233854939,22280.0,0.1643390331319053,1.1243216193939722,0.26207442209992327,0.0,1,2675,535.0,1654,27,04:41:00,31:50:00,21.39,26.85,1.68,True,True,2601.0422067746536,True,3,0
Guillestre,05065,Guillestre,44.6596,6.6983,05,93,2295.0,51.4341,44.620203328142225,21330.0,0.11356582499523131,1.265660581908435,0.2819891607057253,7.318850434888186,0,0,0.0,0,0,,,,,,False,False,6749.345803243418,False,0,0
Laragne-Montéglin,05070,Laragne-Montéglin,44.3372,5.8197,05,93,3549.0,22.707800000000002,156.28990919419758,21080.0,0.18205933332178859,1.13091350163182,0.32680661781189035,0.0,1,807,403.5,609,3,05:07:00,21:00:00,15.68,15.88,15.47,True,True,2301.8853304447625,True,2,0
Vallouise-Pelvoux,05101,Vallouise-Pelvoux,44.8646,6.4333,05,93,1138.0,200.52560000000003,5.6750858743222805,21550.0,0.08228180508054053,1.346606688216934,0.30719237375874403,5.870175341485231,0,0,0.0,0,0,,,,,,False,False,12688.243995971518,False,0,0
Val Buëch-Méouge,05118,Val Buëch-Méouge,44.2516,5.8338,05,93,1354.0,69.8375,19.38786468587793,22300.0,0.052838621048820866,1.4083267466949099,0.3257237130870976,9.584211272184218,0,0,0.0,0,0,,,,,,False,False,7311.971613032783,False,0,0
La Roche-des-Arnauds,05123,La Roche-des-Arnauds,44.59,5.9596,05,93,1685.0,52.827600000000004,31.896205771225645,23050.0,0.03561643835616438,1.5,0.1982089552238806,8.158609961109672,0,0,0.0,0,0,,,,,,False,False,10403.595175146203,False,0,0
Saint-Bonnet-en-Champsaur,05132,Saint-Bonnet-en-Champsaur,44.692,6.0988,05,93,2086.0,35.8856,58.12916601645229,22600.0,0.09699564879723864,1.3361330490500658,0.24961151351893177,4.1698929460325465,0,0,0.0,0,0,,,,,,False,False,14290.88496225782,False,0,0
Saint-Chaffrey,05133,Saint-Chaffrey,44.9373,6.5989,05,93,1494.0,25.744,58.03293971410814,23280.0,0.07179524087833443,1.3752183997953338,0.29524859763067424,6.01804573400184,0,0,0.0,0,0,,,,,,False,False,5897.167576012132,False,0,0
Saint-Jean-Saint-Nicolas,05145,Saint-Jean-Saint-Nicolas,44.6757,6.2301,05,93,1110.0,37.7271,29.42182144930302,21030.0,0.08142671297955034,1.3489761001423515,0.2997124100473,3.362264229399752,0,0,0.0,0,0,,,,,,False,False,14813.615776844596,False,0,0
Saint-Martin-de-Queyrières,05151,Saint-Martin-de-Queyrières,44.8382,6.5843,05,93,1114.0,55.731899999999996,19.988552337171352,22960.0,0.047653115772002604,1.5005238416775915,0.15141060082087557,8.734237125285164,0,0,0.0,0,0,,,,,,False,False,5689.565039673344,False,0,0
La Saulce,05162,La Saulce,44.4318,6.0108,05,93,1369.0,7.4527,183.69181638869134,22060.0,0.09618464848782206,1.3570428586092966,0.286498790586136,16.93195615925515,0,0,0.0,0,0,,,,,,False,False,15824.517137529418,False,0,0
Savines-le-Lac,05164,Savines-le-Lac,44.53,6.395,05,93,1102.0,30.4588,36.18002022404034,22720.0,0.07992202729044834,1.3333333333333333,0.28313796212804326,8.475672643070494,0,0,0.0,0,0,,,,,,False,False,9052.866206312472,False,0,0
Serres,05166,Serres,44.4224,5.7142,05,93,1298.0,18.4296,70.43017754047835,20340.0,0.16690856313497823,1.1364296081277214,0.35686876438986953,0.0,1,831,415.5,633,3,05:07:00,21:13:00,15.89,16.1,15.68,True,True,423.8536255168324,True,2,0
Tallard,05170,Tallard,44.4599,6.0485,05,93,2292.0,14.4856,158.226100403159,22310.0,0.1028014807443432,1.3165472757656453,0.26066370227129315,13.361579133542396,0,0,0.0,0,0,,,,,,False,False,11913.879874098782,False,0,0
Veynes,05179,Veynes,44.5599,5.8227,05,93,3214.0,43.6897,73.56424969729707,20310.0,0.1591362578528305,1.1672558996708577,0.3305813118955814,0.0,3,2626,656.5,1566,30,04:41:00,31:50:00,25.98,26.85,25.67,True,True,3144.8199146280317,True,3,0
Villar-Saint-Pancrace,05183,Villar-Saint-Pancrace,44.8378,6.6483,05,93,1433.0,42.889799999999994,33.41120732668374,23020.0,0.09172932330827067,1.3804511278195488,0.25331472435450103,6.8734290941470295,0,0,0.0,0,0,,,,,,False,False,5892.382889650601,False,0,0
Antibes,06004,Antibes,43.5823,7.1048,06,93,77637.0,26.7638,2900.8212585656747,24410.0,0.1983965472119636,1.0410565669301584,0.27714660552172365,0.0,3,27967,3107.4,7461,40,05:33:00,32:48:00,23.77,32.67,15.47,True,True,1239.2964092459388,True,3,0
Aspremont,06006,Aspremont,43.7772,7.2423,06,93,2346.0,9.2759,252.91346392263824,29450.0,0.046840276252024124,1.5509911228429658,0.21900671740599958,8.271548609414895,0,0,0.0,0,0,,,,,,False,False,2416.3725840814545,False,0,0
Auribeau-sur-Siagne,06007,Auribeau-sur-Siagne,43.6105,6.9118,06,93,3401.0,5.2989,641.8313234822322,26870.0,0.03046878913591199,1.5532526356316467,0.2016683581302914,8.223689443140177,0,0,0.0,0,0,,,,,,False,False,4890.8428088848095,False,0,0
Le Bar-sur-Loup,06010,Le Bar-sur-Loup,43.6993,6.9674,06,93,2974.0,14.466099999999999,205.5840896993661,25690.0,0.05843481275056983,1.5032977318822949,0.2316250958530733,5.754577389540064,0,0,0.0,0,0,,,,,,False,False,6118.910867275182,False,0,0
Beaulieu-sur-Mer,06011,Beaulieu-sur-Mer,43.7081,7.3324,06,93,3874.0,1.0661,3633.805459150173,23880.0,0.258373338097428,0.9010631027950827,0.28354524811678955,0.6510732807672476,1,9329,4664.5,7010,6,,25:35:00,25.29,25.45,25.13,True,True,168.32286759751906,True,3,0
Beausoleil,06012,Beausoleil,43.7471,7.4227,06,93,11936.0,2.7880000000000003,4281.205164992826,22510.0,0.3076874175293458,0.803086004463117,0.18232730944608408,0.0,0,0,0.0,0,0,,,,,,False,False,2201.9158124362807,False,0,0
Berre-les-Alpes,06015,Berre-les-Alpes,43.8342,7.3306,06,93,1316.0,9.4765,138.86983590988234,25220.0,0.06253788618238958,1.4233992827683943,0.21905223868721066,15.849646811100424,0,0,0.0,0,0,,,,,,False,False,1807.0523173006072,False,0,0
Biot,06018,Biot,43.6273,7.0821,06,93,10511.0,15.4805,678.98323697555,30320.0,0.12337573289364831,1.3226254239558766,0.1872798114671009,4.2663905118091465,0,0,0.0,0,0,,,,,,False,False,3988.53038476482,False,0,0
Blausasc,06019,Blausasc,43.7938,7.357,06,93,1668.0,10.1121,164.95090040644376,26160.0,0.05212722186358451,1.514777674174908,0.23972767163725964,9.88474602410564,0,0,0.0,0,0,,,,,,False,False,1846.4289426001005,False,0,0
Breil-sur-Roya,06023,Breil-sur-Roya,43.9379,7.4996,06,93,2377.0,81.88470000000001,29.028621952574774,21800.0,0.20414801555892112,1.1156268801773515,0.29183216251026617,0.0,1,1088,544.0,910,3,05:32:00,20:50:00,15.12,15.3,14.93,True,True,1512.6021133538873,True,3,0
Le Broc,06025,Le Broc,43.8146,7.1621,06,93,1446.0,18.742,77.15291857859353,25230.0,0.07439001459695933,1.4629643831599703,0.18264356019586103,5.9728902392080885,0,0,0.0,0,0,,,,,,False,False,2195.7622376211566,False,0,0
Cabris,06026,Cabris,43.6602,6.8782,06,93,1450.0,5.429500000000001,267.05958191362,26480.0,0.0708527182277926,1.4333974177707542,0.3018266992788079,4.7532489193503284,0,0,0.0,0,0,,,,,,False,False,3884.681142836035,False,0,0
Cagnes-sur-Mer,06027,Cagnes-sur-Mer,43.6712,7.1502,06,93,53354.0,18.1436,2940.651248925241,23940.0,0.1886730166018418,1.049868023374248,0.28032421550355746,4.960382044362457,2,17298,4324.5,7057,12,,25:06:00,24.71,24.97,24.57,True,True,1511.84552624724,True,3,0
Cannes,06029,Cannes,43.5454,7.0152,06,93,74350.0,20.7709,3579.5271268938754,21210.0,0.28219979557662656,0.8818407007091652,0.3045189509902187,0.0,5,29367,2447.2,7504,48,05:33:00,32:34:00,22.27,32.45,2.93,True,True,1005.651582584862,True,3,0
Le Cannet,06030,Le Cannet,43.5745,7.001,06,93,41938.0,7.6967,5448.828718801565,22250.0,0.21326953947703128,0.9995751555764051,0.27646954727683515,3.4321171057292834,0,0,0.0,0,0,,,,,,False,False,2620.5018601450806,False,0,0
Cantaron,06031,Cantaron,43.7694,7.3147,06,93,1268.0,7.319,173.24771143598852,26590.0,0.04970385786444652,1.518010036837372,0.2998684734550047,8.883580865623653,1,1605,802.5,1262,3,05:32:00,22:22:00,16.73,16.83,16.62,True,True,1076.7528353195682,True,3,0
Cap-d'Ail,06032,Cap-d'Ail,43.7256,7.4008,06,93,4482.0,2.1197999999999997,2114.3504104160775,26680.0,0.24078860864027324,0.911726385211094,0.21474067024105611,0.0,1,9344,4672.0,7022,6,,25:44:00,25.44,25.6,25.27,True,True,758.2453151065579,True,3,0
Carros,06033,Carros,43.785,7.1798,06,93,13803.0,15.4253,894.8286256993381,23480.0,0.09587393915631047,1.3720324482480655,0.17299895180231045,10.822248748547384,0,0,0.0,0,0,,,,,,False,False,2882.288427812336,False,0,0
Castagniers,06034,Castagniers,43.79,7.2298,06,93,1666.0,6.9876,238.42234815959702,26050.0,0.036586898261286,1.6046041832293603,0.20558111362650774,9.82695724681391,2,2057,1028.5,1392,3,05:45:00,20:26:00,14.68,14.68,14.68,True,True,1173.3020705848023,True,3,0
Châteauneuf-Grasse,06038,Châteauneuf-Grasse,43.6626,6.9792,06,93,3815.0,9.0205,422.9255584501968,29230.0,0.041358159377127855,1.5307439281518482,0.25241301063244387,4.913785313856725,0,0,0.0,0,0,,,,,,False,False,4437.060099474554,False,0,0
La Colle-sur-Loup,06044,La Colle-sur-Loup,43.6869,7.0975,06,93,8202.0,9.83,834.3845371312309,29030.0,0.055468665464936236,1.4800724471311242,0.23355824708429607,6.742023114880073,0,0,0.0,0,0,,,,,,False,False,5208.451224435121,False,0,0
Colomars,06046,Colomars,43.757,7.2212,06,93,3409.0,6.2215,547.9386000160733,28750.0,0.05199767606552938,1.5135807206577143,0.24840880869664297,6.49881278971931,3,5064,1266.0,2022,6,05:45:00,23:51:00,16.41,18.1,14.72,True,True,1526.8940554699564,True,3,0
Contes,06048,Contes,43.8133,7.3263,06,93,7897.0,19.5238,404.4806851125293,24870.0,0.08005099419127351,1.407290764795344,0.25325250612227923,11.70795961425914,0,0,0.0,0,0,,,,,,False,False,3580.940725350406,False,0,0
Drap,06054,Drap,43.7587,7.3395,06,93,5484.0,5.499,997.2722313147846,21790.0,0.10746987951807228,1.2809638554216867,0.2028301886792453,9.306644304885902,1,1223,611.5,940,3,05:32:00,21:40:00,16.13,16.13,16.13,True,True,608.436904666475,True,3,0
L'Escarène,06057,L'Escarène,43.8303,7.3665,06,93,2585.0,10.5127,245.89306267657213,22400.0,0.1327775381535438,1.253101427797351,0.2318435792864951,10.398983241256696,1,1223,611.5,940,3,05:32:00,21:18:00,15.77,15.77,15.77,True,True,1580.088639769137,True,3,0
